{
  "Aclens": {
    "name": "Aclens",
    "zip": "1123",
    "canton": "VD",
    "lat": 46.5680294,
    "lon": 6.51076
  },
  "Adligenswil": {
    "name": "Adligenswil",
    "zip": "6043",
    "canton": "LU",
    "lat": 47.070535,
    "lon": 8.368244
  },
  "Aesch (LU)": {
    "name": "Aesch (LU)",
    "zip": "6287",
    "canton": "LU",
    "lat": 47.2570523,
    "lon": 8.2406691
  },
  "Agarn": {
    "name": "Agarn",
    "zip": "3951",
    "canton": "VS",
    "lat": 46.2967076,
    "lon": 7.6652777
  },
  "Agiez": {
    "name": "Agiez",
    "zip": "1352",
    "canton": "VD",
    "lat": 46.7199018,
    "lon": 6.508106
  },
  "Aigle": {
    "name": "Aigle",
    "zip": "1860",
    "canton": "VD",
    "lat": 46.3167,
    "lon": 6.9667
  },
  "Aire-la-Ville": {
    "name": "Aire-la-Ville",
    "zip": "1288",
    "canton": "GE",
    "lat": 46.1905919,
    "lon": 6.0428776
  },
  "Alberswil": {
    "name": "Alberswil",
    "zip": "6248",
    "canton": "LU",
    "lat": 47.1506183,
    "lon": 8.0013407
  },
  "Albinen": {
    "name": "Albinen",
    "zip": "3955",
    "canton": "VS",
    "lat": 46.3406442,
    "lon": 7.6337277
  },
  "Allaman": {
    "name": "Allaman",
    "zip": "1165",
    "canton": "VD",
    "lat": 46.4707776,
    "lon": 6.396174
  },
  "Alle": {
    "name": "Alle",
    "zip": "2942",
    "canton": "JU",
    "lat": 47.4258096,
    "lon": 7.1291258
  },
  "Altbüron": {
    "name": "Altbüron",
    "zip": "6147",
    "canton": "LU",
    "lat": 47.1816,
    "lon": 7.88263
  },
  "Altishofen": {
    "name": "Altishofen",
    "zip": "6246",
    "canton": "LU",
    "lat": 47.200914,
    "lon": 7.961177
  },
  "Anières": {
    "name": "Anières",
    "zip": "1247",
    "canton": "GE",
    "lat": 46.2760987,
    "lon": 6.2237615
  },
  "Anniviers": {
    "name": "Anniviers",
    "zip": "3961",
    "canton": "VS",
    "lat": 46.1533805,
    "lon": 7.5918568
  },
  "Arbaz": {
    "name": "Arbaz",
    "zip": "1974",
    "canton": "VS",
    "lat": 46.273328,
    "lon": 7.3834555
  },
  "Ardon": {
    "name": "Ardon",
    "zip": "1957",
    "canton": "VS",
    "lat": 46.2104977,
    "lon": 7.2576107
  },
  "Arnex-sur-Nyon": {
    "name": "Arnex-sur-Nyon",
    "zip": "1277",
    "canton": "VD",
    "lat": 46.3759907,
    "lon": 6.1913819
  },
  "Arnex-sur-Orbe": {
    "name": "Arnex-sur-Orbe",
    "zip": "1321",
    "canton": "VD",
    "lat": 46.6941594,
    "lon": 6.5187517
  },
  "Arzier-Le Muids": {
    "name": "Arzier-Le Muids",
    "zip": "1273",
    "canton": "VD",
    "lat": 46.4599808,
    "lon": 6.208069
  },
  "Assens": {
    "name": "Assens",
    "zip": "1042",
    "canton": "VD",
    "lat": 46.6127871,
    "lon": 6.6225936
  },
  "Attalens": {
    "name": "Attalens",
    "zip": "1616",
    "canton": "FR",
    "lat": 46.5110996,
    "lon": 6.8489696
  },
  "Aubonne": {
    "name": "Aubonne",
    "zip": "1170",
    "canton": "VD",
    "lat": 46.4952916,
    "lon": 6.3915748
  },
  "Ausserberg": {
    "name": "Ausserberg",
    "zip": "3938",
    "canton": "VS",
    "lat": 46.3153094,
    "lon": 7.8525781
  },
  "Autigny": {
    "name": "Autigny",
    "zip": "1742",
    "canton": "FR",
    "lat": 46.7370465,
    "lon": 7.0200732
  },
  "Avenches": {
    "name": "Avenches",
    "zip": "1580",
    "canton": "VD",
    "lat": 46.879575,
    "lon": 7.040941
  },
  "Avry": {
    "name": "Avry",
    "zip": "1754",
    "canton": "FR",
    "lat": 46.7877054,
    "lon": 7.0708826
  },
  "Avully": {
    "name": "Avully",
    "zip": "1237",
    "canton": "GE",
    "lat": 46.1695458,
    "lon": 6.0013516
  },
  "Avusy": {
    "name": "Avusy",
    "zip": "1285",
    "canton": "GE",
    "lat": 46.1516784,
    "lon": 5.9947436
  },
  "Ayent": {
    "name": "Ayent",
    "zip": "1966",
    "canton": "VS",
    "lat": 46.3190236,
    "lon": 7.4166423
  },
  "Ballaigues": {
    "name": "Ballaigues",
    "zip": "1338",
    "canton": "VD",
    "lat": 46.7305278,
    "lon": 6.4132441
  },
  "Ballens": {
    "name": "Ballens",
    "zip": "1144",
    "canton": "VD",
    "lat": 46.5542745,
    "lon": 6.3750843
  },
  "Ballwil": {
    "name": "Ballwil",
    "zip": "6275",
    "canton": "LU",
    "lat": 47.1521716,
    "lon": 8.3185717
  },
  "Baltschieder": {
    "name": "Baltschieder",
    "zip": "3937",
    "canton": "VS",
    "lat": 46.3079079,
    "lon": 7.8646512
  },
  "Bardonnex": {
    "name": "Bardonnex",
    "zip": "1257",
    "canton": "GE",
    "lat": 46.1499139,
    "lon": 6.1051191
  },
  "Bas-Intyamon": {
    "name": "Bas-Intyamon",
    "zip": "1669",
    "canton": "FR",
    "lat": 46.5627725,
    "lon": 7.0966531
  },
  "Basse-Allaine": {
    "name": "Basse-Allaine",
    "zip": "2904",
    "canton": "JU",
    "lat": 47.47124,
    "lon": 7.0362191
  },
  "Basse-Vendline": {
    "name": "Basse-Vendline",
    "zip": "2926",
    "canton": "JU",
    "lat": 47.4817987,
    "lon": 7.1555297
  },
  "Bassins": {
    "name": "Bassins",
    "zip": "1269",
    "canton": "VD",
    "lat": 46.464053,
    "lon": 6.2316394
  },
  "Baulmes": {
    "name": "Baulmes",
    "zip": "1446",
    "canton": "VD",
    "lat": 46.7903981,
    "lon": 6.5212523
  },
  "Bavois": {
    "name": "Bavois",
    "zip": "1372",
    "canton": "VD",
    "lat": 46.6853078,
    "lon": 6.5651634
  },
  "Begnins": {
    "name": "Begnins",
    "zip": "1268",
    "canton": "VD",
    "lat": 46.4411298,
    "lon": 6.2492689
  },
  "Belfaux": {
    "name": "Belfaux",
    "zip": "1782",
    "canton": "FR",
    "lat": 46.8216259,
    "lon": 7.1068684
  },
  "Bellevue": {
    "name": "Bellevue",
    "zip": "1293",
    "canton": "GE",
    "lat": 46.255,
    "lon": 6.154317
  },
  "Bellwald": {
    "name": "Bellwald",
    "zip": "3997",
    "canton": "VS",
    "lat": 46.4237017,
    "lon": 8.1599477
  },
  "Belmont-Broye": {
    "name": "Belmont-Broye",
    "zip": "1773",
    "canton": "FR",
    "lat": 46.8485832,
    "lon": 7.0054655
  },
  "Belmont-sur-Lausanne": {
    "name": "Belmont-sur-Lausanne",
    "zip": "1092",
    "canton": "VD",
    "lat": 46.5197,
    "lon": 6.6323
  },
  "Belmont-sur-Yverdon": {
    "name": "Belmont-sur-Yverdon",
    "zip": "1432",
    "canton": "VD",
    "lat": 46.7454798,
    "lon": 6.6241604
  },
  "Bercher": {
    "name": "Bercher",
    "zip": "1038",
    "canton": "VD",
    "lat": 46.6920285,
    "lon": 6.7089748
  },
  "Bernex": {
    "name": "Bernex",
    "zip": "1233",
    "canton": "GE",
    "lat": 46.9481,
    "lon": 7.4474
  },
  "Berolle": {
    "name": "Berolle",
    "zip": "1149",
    "canton": "VD",
    "lat": 46.5583845,
    "lon": 6.3373241
  },
  "Beromünster": {
    "name": "Beromünster",
    "zip": "6215",
    "canton": "LU",
    "lat": 47.2076373,
    "lon": 8.1924386
  },
  "Bettens": {
    "name": "Bettens",
    "zip": "1042",
    "canton": "VD",
    "lat": 46.6275904,
    "lon": 6.5770883
  },
  "Bettmeralp": {
    "name": "Bettmeralp",
    "zip": "3992",
    "canton": "VS",
    "lat": 46.3905924,
    "lon": 8.0627954
  },
  "Bex": {
    "name": "Bex",
    "zip": "1880",
    "canton": "VD",
    "lat": 46.2513776,
    "lon": 7.0123881
  },
  "Billens-Hennens": {
    "name": "Billens-Hennens",
    "zip": "1681",
    "canton": "FR",
    "lat": 46.6870318,
    "lon": 6.8911551
  },
  "Binn": {
    "name": "Binn",
    "zip": "3996",
    "canton": "VS",
    "lat": 46.3655993,
    "lon": 8.1883972
  },
  "Bioley-Magnoux": {
    "name": "Bioley-Magnoux",
    "zip": "1407",
    "canton": "VD",
    "lat": 46.7255605,
    "lon": 6.7108156
  },
  "Bister": {
    "name": "Bister",
    "zip": "3983",
    "canton": "VS",
    "lat": 46.3620412,
    "lon": 8.0668223
  },
  "Bitsch": {
    "name": "Bitsch",
    "zip": "3982",
    "canton": "VS",
    "lat": 46.3374019,
    "lon": 8.0136014
  },
  "Bière": {
    "name": "Bière",
    "zip": "1145",
    "canton": "VD",
    "lat": 46.5373773,
    "lon": 6.3337235
  },
  "Blatten": {
    "name": "Blatten",
    "zip": "3919",
    "canton": "VS",
    "lat": 46.4436311,
    "lon": 7.856841
  },
  "Blonay - Saint-Légier": {
    "name": "Blonay - Saint-Légier",
    "zip": "1807",
    "canton": "VD",
    "lat": 46.4650397,
    "lon": 6.8951981
  },
  "Bofflens": {
    "name": "Bofflens",
    "zip": "1353",
    "canton": "VD",
    "lat": 46.7045569,
    "lon": 6.4989467
  },
  "Bogis-Bossey": {
    "name": "Bogis-Bossey",
    "zip": "1279",
    "canton": "VD",
    "lat": 46.3515732,
    "lon": 6.1648147
  },
  "Bois-d'Amont": {
    "name": "Bois-d'Amont",
    "zip": "1610",
    "canton": "FR",
    "lat": 46.7537789,
    "lon": 7.1306571
  },
  "Boncourt": {
    "name": "Boncourt",
    "zip": "2926",
    "canton": "JU",
    "lat": 47.4979359,
    "lon": 7.0127433
  },
  "Bonvillars": {
    "name": "Bonvillars",
    "zip": "1427",
    "canton": "VD",
    "lat": 46.8375743,
    "lon": 6.6706023
  },
  "Borex": {
    "name": "Borex",
    "zip": "1277",
    "canton": "VD",
    "lat": 46.379071,
    "lon": 6.1777222
  },
  "Bossonnens": {
    "name": "Bossonnens",
    "zip": "1615",
    "canton": "FR",
    "lat": 46.5217291,
    "lon": 6.8495191
  },
  "Bottens": {
    "name": "Bottens",
    "zip": "1041",
    "canton": "VD",
    "lat": 46.6169088,
    "lon": 6.6607269
  },
  "Botterens": {
    "name": "Botterens",
    "zip": "1652",
    "canton": "FR",
    "lat": 46.6179671,
    "lon": 7.1123024
  },
  "Boudry": {
    "name": "Boudry",
    "zip": "2017",
    "canton": "NE",
    "lat": 46.9487464,
    "lon": 6.8358712
  },
  "Bougy-Villars": {
    "name": "Bougy-Villars",
    "zip": "1172",
    "canton": "VD",
    "lat": 46.4787593,
    "lon": 6.3545367
  },
  "Boulens": {
    "name": "Boulens",
    "zip": "1063",
    "canton": "VD",
    "lat": 46.681059,
    "lon": 6.7192139
  },
  "Bourg-Saint-Pierre": {
    "name": "Bourg-Saint-Pierre",
    "zip": "1946",
    "canton": "VS",
    "lat": 45.9489252,
    "lon": 7.2088271
  },
  "Bourg-en-Lavaux": {
    "name": "Bourg-en-Lavaux",
    "zip": "1091",
    "canton": "VD",
    "lat": 46.4700145,
    "lon": 6.7185559
  },
  "Bournens": {
    "name": "Bournens",
    "zip": "1035",
    "canton": "VD",
    "lat": 46.6041672,
    "lon": 6.5633012
  },
  "Bourrignon": {
    "name": "Bourrignon",
    "zip": "2803",
    "canton": "JU",
    "lat": 47.3966596,
    "lon": 7.245026
  },
  "Boussens": {
    "name": "Boussens",
    "zip": "1034",
    "canton": "VD",
    "lat": 46.6024104,
    "lon": 6.5845617
  },
  "Bovernier": {
    "name": "Bovernier",
    "zip": "1932",
    "canton": "VS",
    "lat": 46.0799974,
    "lon": 7.0868391
  },
  "Boécourt": {
    "name": "Boécourt",
    "zip": "2856",
    "canton": "JU",
    "lat": 47.3489482,
    "lon": 7.2140576
  },
  "Bremblens": {
    "name": "Bremblens",
    "zip": "1121",
    "canton": "VD",
    "lat": 46.5461677,
    "lon": 6.51777
  },
  "Bretigny-sur-Morrens": {
    "name": "Bretigny-sur-Morrens",
    "zip": "1053",
    "canton": "VD",
    "lat": 46.596563,
    "lon": 6.640643
  },
  "Bretonnières": {
    "name": "Bretonnières",
    "zip": "1329",
    "canton": "VD",
    "lat": 46.7122384,
    "lon": 6.4734908
  },
  "Brig-Glis": {
    "name": "Brig-Glis",
    "zip": "3900",
    "canton": "VS",
    "lat": 46.2887324,
    "lon": 7.9753084
  },
  "Broc": {
    "name": "Broc",
    "zip": "1636",
    "canton": "FR",
    "lat": 46.6044669,
    "lon": 7.0989913
  },
  "Brot-Plamboz": {
    "name": "Brot-Plamboz",
    "zip": "2318",
    "canton": "NE",
    "lat": 46.9724714,
    "lon": 6.7408701
  },
  "Brünisried": {
    "name": "Brünisried",
    "zip": "1719",
    "canton": "FR",
    "lat": 46.7601579,
    "lon": 7.2780335
  },
  "Buchillon": {
    "name": "Buchillon",
    "zip": "1164",
    "canton": "VD",
    "lat": 46.4702466,
    "lon": 6.4230108
  },
  "Buchrain": {
    "name": "Buchrain",
    "zip": "6033",
    "canton": "LU",
    "lat": 47.0941034,
    "lon": 8.3472568
  },
  "Bulle": {
    "name": "Bulle",
    "zip": "1630",
    "canton": "FR",
    "lat": 46.6190969,
    "lon": 7.0581152
  },
  "Bullet": {
    "name": "Bullet",
    "zip": "1453",
    "canton": "VD",
    "lat": 46.8309314,
    "lon": 6.5546431
  },
  "Bure": {
    "name": "Bure",
    "zip": "2915",
    "canton": "JU",
    "lat": 47.4422662,
    "lon": 7.0059901
  },
  "Bursinel": {
    "name": "Bursinel",
    "zip": "1195",
    "canton": "VD",
    "lat": 46.438423,
    "lon": 6.3053467
  },
  "Bursins": {
    "name": "Bursins",
    "zip": "1183",
    "canton": "VD",
    "lat": 46.4515535,
    "lon": 6.2906369
  },
  "Burtigny": {
    "name": "Burtigny",
    "zip": "1268",
    "canton": "VD",
    "lat": 46.4687203,
    "lon": 6.2567707
  },
  "Bussigny": {
    "name": "Bussigny",
    "zip": "1030",
    "canton": "VD",
    "lat": 46.5512503,
    "lon": 6.553745
  },
  "Bussy-sur-Moudon": {
    "name": "Bussy-sur-Moudon",
    "zip": "1514",
    "canton": "VD",
    "lat": 46.6858284,
    "lon": 6.8108726
  },
  "Buttisholz": {
    "name": "Buttisholz",
    "zip": "6018",
    "canton": "LU",
    "lat": 47.1139601,
    "lon": 8.0935047
  },
  "Bösingen": {
    "name": "Bösingen",
    "zip": "3178",
    "canton": "FR",
    "lat": 46.8924179,
    "lon": 7.2273544
  },
  "Bürchen": {
    "name": "Bürchen",
    "zip": "3935",
    "canton": "VS",
    "lat": 46.2805676,
    "lon": 7.8163191
  },
  "Büron": {
    "name": "Büron",
    "zip": "6233",
    "canton": "LU",
    "lat": 47.2142552,
    "lon": 8.0946583
  },
  "Carouge (GE)": {
    "name": "Carouge (GE)",
    "zip": "1227",
    "canton": "GE",
    "lat": 46.1846691,
    "lon": 6.1396839
  },
  "Cartigny": {
    "name": "Cartigny",
    "zip": "1236",
    "canton": "GE",
    "lat": 46.1736699,
    "lon": 6.021701
  },
  "Chalais": {
    "name": "Chalais",
    "zip": "3966",
    "canton": "VS",
    "lat": 46.2654381,
    "lon": 7.5085408
  },
  "Chamblon": {
    "name": "Chamblon",
    "zip": "1436",
    "canton": "VD",
    "lat": 46.7772764,
    "lon": 6.6044112
  },
  "Chamoson": {
    "name": "Chamoson",
    "zip": "1955",
    "canton": "VS",
    "lat": 46.2013342,
    "lon": 7.2232538
  },
  "Champagne": {
    "name": "Champagne",
    "zip": "1424",
    "canton": "VD",
    "lat": 46.8302611,
    "lon": 6.6580976
  },
  "Champtauroz": {
    "name": "Champtauroz",
    "zip": "1537",
    "canton": "VD",
    "lat": 46.760598,
    "lon": 6.789151
  },
  "Champvent": {
    "name": "Champvent",
    "zip": "1443",
    "canton": "VD",
    "lat": 46.7828052,
    "lon": 6.5726094
  },
  "Champéry": {
    "name": "Champéry",
    "zip": "1874",
    "canton": "VS",
    "lat": 46.1756791,
    "lon": 6.8687665
  },
  "Chancy": {
    "name": "Chancy",
    "zip": "1284",
    "canton": "GE",
    "lat": 46.1494836,
    "lon": 5.9726439
  },
  "Chardonne": {
    "name": "Chardonne",
    "zip": "1803",
    "canton": "VD",
    "lat": 46.4770903,
    "lon": 6.8271259
  },
  "Chavannes-de-Bogis": {
    "name": "Chavannes-de-Bogis",
    "zip": "1279",
    "canton": "VD",
    "lat": 46.3446425,
    "lon": 6.1625796
  },
  "Chavannes-des-Bois": {
    "name": "Chavannes-des-Bois",
    "zip": "1290",
    "canton": "VD",
    "lat": 46.3147141,
    "lon": 6.132561
  },
  "Chavannes-le-Chêne": {
    "name": "Chavannes-le-Chêne",
    "zip": "1464",
    "canton": "VD",
    "lat": 46.7768814,
    "lon": 6.7780279
  },
  "Chavannes-le-Veyron": {
    "name": "Chavannes-le-Veyron",
    "zip": "1148",
    "canton": "VD",
    "lat": 46.60645,
    "lon": 6.4509017
  },
  "Chavannes-près-Renens": {
    "name": "Chavannes-près-Renens",
    "zip": "1022",
    "canton": "VD",
    "lat": 46.5285212,
    "lon": 6.5726698
  },
  "Chavannes-sur-Moudon": {
    "name": "Chavannes-sur-Moudon",
    "zip": "1512",
    "canton": "VD",
    "lat": 46.6571671,
    "lon": 6.8092169
  },
  "Chavornay": {
    "name": "Chavornay",
    "zip": "1373",
    "canton": "VD",
    "lat": 46.7101091,
    "lon": 6.5641863
  },
  "Cheseaux-Noréaz": {
    "name": "Cheseaux-Noréaz",
    "zip": "1400",
    "canton": "VD",
    "lat": 46.7820326,
    "lon": 6.6718258
  },
  "Cheseaux-sur-Lausanne": {
    "name": "Cheseaux-sur-Lausanne",
    "zip": "1033",
    "canton": "VD",
    "lat": 46.5854324,
    "lon": 6.6061393
  },
  "Chessel": {
    "name": "Chessel",
    "zip": "1846",
    "canton": "VD",
    "lat": 46.3495725,
    "lon": 6.8944469
  },
  "Chevilly": {
    "name": "Chevilly",
    "zip": "1316",
    "canton": "VD",
    "lat": 46.642766,
    "lon": 6.4771672
  },
  "Chevroux": {
    "name": "Chevroux",
    "zip": "1545",
    "canton": "VD",
    "lat": 46.8898441,
    "lon": 6.9053929
  },
  "Chexbres": {
    "name": "Chexbres",
    "zip": "1071",
    "canton": "VD",
    "lat": 46.4809505,
    "lon": 6.7803021
  },
  "Cheyres-Châbles": {
    "name": "Cheyres-Châbles",
    "zip": "1468",
    "canton": "FR",
    "lat": 46.8225391,
    "lon": 6.788489
  },
  "Chigny": {
    "name": "Chigny",
    "zip": "1134",
    "canton": "VD",
    "lat": 46.5201861,
    "lon": 6.4773257
  },
  "Chippis": {
    "name": "Chippis",
    "zip": "3965",
    "canton": "VS",
    "lat": 46.2805414,
    "lon": 7.5406261
  },
  "Choulex": {
    "name": "Choulex",
    "zip": "1244",
    "canton": "GE",
    "lat": 46.2231863,
    "lon": 6.2242767
  },
  "Château-d'Oex": {
    "name": "Château-d'Oex",
    "zip": "1660",
    "canton": "VD",
    "lat": 46.4738413,
    "lon": 7.1303012
  },
  "Châtel-Saint-Denis": {
    "name": "Châtel-Saint-Denis",
    "zip": "1618",
    "canton": "FR",
    "lat": 46.5265288,
    "lon": 6.8996536
  },
  "Châtel-sur-Montsalvens": {
    "name": "Châtel-sur-Montsalvens",
    "zip": "1653",
    "canton": "FR",
    "lat": 46.6139677,
    "lon": 7.1290698
  },
  "Châtillon (FR)": {
    "name": "Châtillon (FR)",
    "zip": "1473",
    "canton": "FR",
    "lat": 46.8328121,
    "lon": 6.8289185
  },
  "Châtillon (JU)": {
    "name": "Châtillon (JU)",
    "zip": "2843",
    "canton": "JU",
    "lat": 47.3275306,
    "lon": 7.3437721
  },
  "Châtonnaye": {
    "name": "Châtonnaye",
    "zip": "1553",
    "canton": "FR",
    "lat": 46.752828,
    "lon": 6.938321
  },
  "Chénens": {
    "name": "Chénens",
    "zip": "1744",
    "canton": "FR",
    "lat": 46.7408796,
    "lon": 7.0023814
  },
  "Chéserex": {
    "name": "Chéserex",
    "zip": "1275",
    "canton": "VD",
    "lat": 46.3997632,
    "lon": 6.1737875
  },
  "Chêne-Bougeries": {
    "name": "Chêne-Bougeries",
    "zip": "1224",
    "canton": "GE",
    "lat": 46.1963639,
    "lon": 6.1854072
  },
  "Chêne-Bourg": {
    "name": "Chêne-Bourg",
    "zip": "1225",
    "canton": "GE",
    "lat": 46.1942388,
    "lon": 6.1934779
  },
  "Chêne-Pâquier": {
    "name": "Chêne-Pâquier",
    "zip": "1464",
    "canton": "VD",
    "lat": 46.771165,
    "lon": 6.7684976
  },
  "Clarmont": {
    "name": "Clarmont",
    "zip": "1127",
    "canton": "VD",
    "lat": 46.5474321,
    "lon": 6.4501584
  },
  "Clos du Doubs": {
    "name": "Clos du Doubs",
    "zip": "2883",
    "canton": "JU",
    "lat": 47.3493072,
    "lon": 7.1208528
  },
  "Coeuve": {
    "name": "Coeuve",
    "zip": "2932",
    "canton": "JU",
    "lat": 47.454155,
    "lon": 7.0975919
  },
  "Coinsins": {
    "name": "Coinsins",
    "zip": "1267",
    "canton": "VD",
    "lat": 46.4245995,
    "lon": 6.2359205
  },
  "Collex-Bossy": {
    "name": "Collex-Bossy",
    "zip": "1239",
    "canton": "GE",
    "lat": 46.2702127,
    "lon": 6.1225354
  },
  "Collombey-Muraz": {
    "name": "Collombey-Muraz",
    "zip": "1893",
    "canton": "VS",
    "lat": 46.2676732,
    "lon": 6.94607
  },
  "Collonge-Bellerive": {
    "name": "Collonge-Bellerive",
    "zip": "1245",
    "canton": "GE",
    "lat": 46.2537418,
    "lon": 6.2045928
  },
  "Collonges": {
    "name": "Collonges",
    "zip": "1903",
    "canton": "VS",
    "lat": 46.1714906,
    "lon": 7.0347121
  },
  "Cologny": {
    "name": "Cologny",
    "zip": "1223",
    "canton": "GE",
    "lat": 46.2163962,
    "lon": 6.1817613
  },
  "Commugny": {
    "name": "Commugny",
    "zip": "1291",
    "canton": "VD",
    "lat": 46.3182308,
    "lon": 6.1757684
  },
  "Concise": {
    "name": "Concise",
    "zip": "1426",
    "canton": "VD",
    "lat": 46.8511242,
    "lon": 6.7205199
  },
  "Confignon": {
    "name": "Confignon",
    "zip": "1232",
    "canton": "GE",
    "lat": 46.1742486,
    "lon": 6.0851643
  },
  "Conthey": {
    "name": "Conthey",
    "zip": "1964",
    "canton": "VS",
    "lat": 46.1880173,
    "lon": 7.2903423
  },
  "Coppet": {
    "name": "Coppet",
    "zip": "1296",
    "canton": "VD",
    "lat": 46.3164464,
    "lon": 6.1927752
  },
  "Corbeyrier": {
    "name": "Corbeyrier",
    "zip": "1856",
    "canton": "VD",
    "lat": 46.3495001,
    "lon": 6.9597544
  },
  "Corbières": {
    "name": "Corbières",
    "zip": "1647",
    "canton": "FR",
    "lat": 46.6582727,
    "lon": 7.1077166
  },
  "Corcelles-le-Jorat": {
    "name": "Corcelles-le-Jorat",
    "zip": "1082",
    "canton": "VD",
    "lat": 46.6058744,
    "lon": 6.7407986
  },
  "Corcelles-près-Concise": {
    "name": "Corcelles-près-Concise",
    "zip": "1426",
    "canton": "VD",
    "lat": 46.8480696,
    "lon": 6.7079314
  },
  "Corcelles-près-Payerne": {
    "name": "Corcelles-près-Payerne",
    "zip": "1562",
    "canton": "VD",
    "lat": 46.8331849,
    "lon": 6.9614432
  },
  "Corminboeuf": {
    "name": "Corminboeuf",
    "zip": "1720",
    "canton": "FR",
    "lat": 46.8116318,
    "lon": 7.1052486
  },
  "Cornaux": {
    "name": "Cornaux",
    "zip": "2087",
    "canton": "NE",
    "lat": 47.0383306,
    "lon": 7.0188056
  },
  "Cornol": {
    "name": "Cornol",
    "zip": "2952",
    "canton": "JU",
    "lat": 47.4073679,
    "lon": 7.1612963
  },
  "Corseaux": {
    "name": "Corseaux",
    "zip": "1802",
    "canton": "VD",
    "lat": 46.4722747,
    "lon": 6.8320071
  },
  "Corsier (GE)": {
    "name": "Corsier (GE)",
    "zip": "1246",
    "canton": "GE",
    "lat": 46.2626753,
    "lon": 6.2250187
  },
  "Corsier-sur-Vevey": {
    "name": "Corsier-sur-Vevey",
    "zip": "1804",
    "canton": "VD",
    "lat": 46.4705779,
    "lon": 6.8436858
  },
  "Cortaillod": {
    "name": "Cortaillod",
    "zip": "2016",
    "canton": "NE",
    "lat": 46.9432319,
    "lon": 6.8458944
  },
  "Cossonay": {
    "name": "Cossonay",
    "zip": "1304",
    "canton": "VD",
    "lat": 46.6138202,
    "lon": 6.508938
  },
  "Cottens (FR)": {
    "name": "Cottens (FR)",
    "zip": "1741",
    "canton": "FR",
    "lat": 46.7521088,
    "lon": 7.0326696
  },
  "Courchapoix": {
    "name": "Courchapoix",
    "zip": "2825",
    "canton": "JU",
    "lat": 47.3489876,
    "lon": 7.4561999
  },
  "Courchavon": {
    "name": "Courchavon",
    "zip": "2922",
    "canton": "JU",
    "lat": 47.4407708,
    "lon": 7.0570937
  },
  "Courgenay": {
    "name": "Courgenay",
    "zip": "2950",
    "canton": "JU",
    "lat": 47.4045434,
    "lon": 7.1242961
  },
  "Courgevaux": {
    "name": "Courgevaux",
    "zip": "1796",
    "canton": "FR",
    "lat": 46.9075278,
    "lon": 7.1110471
  },
  "Courrendlin": {
    "name": "Courrendlin",
    "zip": "2830",
    "canton": "JU",
    "lat": 47.3392989,
    "lon": 7.3735698
  },
  "Courroux": {
    "name": "Courroux",
    "zip": "2822",
    "canton": "JU",
    "lat": 47.359922,
    "lon": 7.3782917
  },
  "Courtedoux": {
    "name": "Courtedoux",
    "zip": "2905",
    "canton": "JU",
    "lat": 47.41021,
    "lon": 7.0417935
  },
  "Courtepin": {
    "name": "Courtepin",
    "zip": "1784",
    "canton": "FR",
    "lat": 46.8646269,
    "lon": 7.124935
  },
  "Courtételle": {
    "name": "Courtételle",
    "zip": "2852",
    "canton": "JU",
    "lat": 47.3418687,
    "lon": 7.3162671
  },
  "Crans (VD)": {
    "name": "Crans (VD)",
    "zip": "1299",
    "canton": "VD",
    "lat": 46.3579285,
    "lon": 6.2058302
  },
  "Crans-Montana": {
    "name": "Crans-Montana",
    "zip": "3963",
    "canton": "VS",
    "lat": 46.3304899,
    "lon": 7.5264358
  },
  "Crassier": {
    "name": "Crassier",
    "zip": "1263",
    "canton": "VD",
    "lat": 46.374331,
    "lon": 6.164548
  },
  "Cressier (FR)": {
    "name": "Cressier (FR)",
    "zip": "1785",
    "canton": "FR",
    "lat": 46.8986683,
    "lon": 7.1417574
  },
  "Cressier (NE)": {
    "name": "Cressier (NE)",
    "zip": "2088",
    "canton": "NE",
    "lat": 47.0508386,
    "lon": 7.0357396
  },
  "Crissier": {
    "name": "Crissier",
    "zip": "1023",
    "canton": "VD",
    "lat": 46.5538658,
    "lon": 6.5772501
  },
  "Cronay": {
    "name": "Cronay",
    "zip": "1406",
    "canton": "VD",
    "lat": 46.7571842,
    "lon": 6.6966405
  },
  "Croy": {
    "name": "Croy",
    "zip": "1322",
    "canton": "VD",
    "lat": 46.6945678,
    "lon": 6.4771721
  },
  "Crésuz": {
    "name": "Crésuz",
    "zip": "1653",
    "canton": "FR",
    "lat": 46.6199886,
    "lon": 7.140824
  },
  "Cuarnens": {
    "name": "Cuarnens",
    "zip": "1148",
    "canton": "VD",
    "lat": 46.6248084,
    "lon": 6.4382631
  },
  "Cuarny": {
    "name": "Cuarny",
    "zip": "1404",
    "canton": "VD",
    "lat": 46.7700368,
    "lon": 6.6884422
  },
  "Cudrefin": {
    "name": "Cudrefin",
    "zip": "1588",
    "canton": "VD",
    "lat": 46.9560359,
    "lon": 7.0183078
  },
  "Cugy (FR)": {
    "name": "Cugy (FR)",
    "zip": "1482",
    "canton": "FR",
    "lat": 46.815539,
    "lon": 6.8910259
  },
  "Cugy (VD)": {
    "name": "Cugy (VD)",
    "zip": "1053",
    "canton": "VD",
    "lat": 46.5842947,
    "lon": 6.6404485
  },
  "Curtilles": {
    "name": "Curtilles",
    "zip": "1521",
    "canton": "VD",
    "lat": 46.7005524,
    "lon": 6.8486858
  },
  "Céligny": {
    "name": "Céligny",
    "zip": "1298",
    "canton": "GE",
    "lat": 46.3505844,
    "lon": 6.1949435
  },
  "Dagmersellen": {
    "name": "Dagmersellen",
    "zip": "6252",
    "canton": "LU",
    "lat": 47.2135668,
    "lon": 7.9901132
  },
  "Daillens": {
    "name": "Daillens",
    "zip": "1306",
    "canton": "VD",
    "lat": 46.6202897,
    "lon": 6.5487115
  },
  "Damphreux-Lugnez": {
    "name": "Damphreux-Lugnez",
    "zip": "2933",
    "canton": "JU",
    "lat": 47.4790074,
    "lon": 7.101282
  },
  "Dardagny": {
    "name": "Dardagny",
    "zip": "1283",
    "canton": "GE",
    "lat": 46.1947104,
    "lon": 5.9948422
  },
  "Delley-Portalban": {
    "name": "Delley-Portalban",
    "zip": "1567",
    "canton": "FR",
    "lat": 46.9259498,
    "lon": 6.9406454
  },
  "Delémont": {
    "name": "Delémont",
    "zip": "2800",
    "canton": "JU",
    "lat": 47.3644,
    "lon": 7.3467
  },
  "Denens": {
    "name": "Denens",
    "zip": "1135",
    "canton": "VD",
    "lat": 46.518323,
    "lon": 6.4564786
  },
  "Denges": {
    "name": "Denges",
    "zip": "1026",
    "canton": "VD",
    "lat": 46.5241679,
    "lon": 6.5402546
  },
  "Develier": {
    "name": "Develier",
    "zip": "2802",
    "canton": "JU",
    "lat": 47.3567272,
    "lon": 7.2910721
  },
  "Dierikon": {
    "name": "Dierikon",
    "zip": "6036",
    "canton": "LU",
    "lat": 47.0969574,
    "lon": 8.3692841
  },
  "Dizy": {
    "name": "Dizy",
    "zip": "1304",
    "canton": "VD",
    "lat": 46.6348867,
    "lon": 6.4949896
  },
  "Dompierre (VD)": {
    "name": "Dompierre (VD)",
    "zip": "1682",
    "canton": "VD",
    "lat": 46.7081899,
    "lon": 6.8835369
  },
  "Donneloye": {
    "name": "Donneloye",
    "zip": "1407",
    "canton": "VD",
    "lat": 46.744325,
    "lon": 6.7155281
  },
  "Doppleschwand": {
    "name": "Doppleschwand",
    "zip": "6112",
    "canton": "LU",
    "lat": 47.0180974,
    "lon": 8.0553111
  },
  "Dorénaz": {
    "name": "Dorénaz",
    "zip": "1905",
    "canton": "VS",
    "lat": 46.1479018,
    "lon": 7.0435276
  },
  "Duillier": {
    "name": "Duillier",
    "zip": "1266",
    "canton": "VD",
    "lat": 46.4097312,
    "lon": 6.235451
  },
  "Dully": {
    "name": "Dully",
    "zip": "1195",
    "canton": "VD",
    "lat": 46.4304617,
    "lon": 6.2957383
  },
  "Démoret": {
    "name": "Démoret",
    "zip": "1415",
    "canton": "VD",
    "lat": 46.7466929,
    "lon": 6.7570249
  },
  "Düdingen": {
    "name": "Düdingen",
    "zip": "3186",
    "canton": "FR",
    "lat": 46.849747,
    "lon": 7.1904436
  },
  "Ebikon": {
    "name": "Ebikon",
    "zip": "6030",
    "canton": "LU",
    "lat": 47.0812067,
    "lon": 8.338521
  },
  "Echallens": {
    "name": "Echallens",
    "zip": "1040",
    "canton": "VD",
    "lat": 46.6381163,
    "lon": 6.6346951
  },
  "Echandens": {
    "name": "Echandens",
    "zip": "1026",
    "canton": "VD",
    "lat": 46.534381,
    "lon": 6.5410474
  },
  "Echarlens": {
    "name": "Echarlens",
    "zip": "1646",
    "canton": "FR",
    "lat": 46.646575,
    "lon": 7.0758958
  },
  "Echichens": {
    "name": "Echichens",
    "zip": "1112",
    "canton": "VD",
    "lat": 46.5265541,
    "lon": 6.4978862
  },
  "Eclépens": {
    "name": "Eclépens",
    "zip": "1312",
    "canton": "VD",
    "lat": 46.6515007,
    "lon": 6.5285061
  },
  "Ecublens (VD)": {
    "name": "Ecublens (VD)",
    "zip": "1024",
    "canton": "VD",
    "lat": 46.5258,
    "lon": 6.5621137
  },
  "Ederswiler": {
    "name": "Ederswiler",
    "zip": "2813",
    "canton": "JU",
    "lat": 47.425687,
    "lon": 7.334709
  },
  "Eggerberg": {
    "name": "Eggerberg",
    "zip": "3939",
    "canton": "VS",
    "lat": 46.3064931,
    "lon": 7.8780148
  },
  "Egolzwil": {
    "name": "Egolzwil",
    "zip": "6243",
    "canton": "LU",
    "lat": 47.1859718,
    "lon": 8.0056254
  },
  "Eich": {
    "name": "Eich",
    "zip": "6205",
    "canton": "LU",
    "lat": 47.1515249,
    "lon": 8.1691162
  },
  "Eischoll": {
    "name": "Eischoll",
    "zip": "3943",
    "canton": "VS",
    "lat": 46.2936189,
    "lon": 7.7812181
  },
  "Eisten": {
    "name": "Eisten",
    "zip": "3922",
    "canton": "VS",
    "lat": 46.1988458,
    "lon": 7.8949076
  },
  "Embd": {
    "name": "Embd",
    "zip": "3926",
    "canton": "VS",
    "lat": 46.215848,
    "lon": 7.8283567
  },
  "Emmen": {
    "name": "Emmen",
    "zip": "6032",
    "canton": "LU",
    "lat": 47.081,
    "lon": 8.306
  },
  "Entlebuch": {
    "name": "Entlebuch",
    "zip": "6162",
    "canton": "LU",
    "lat": 46.9922358,
    "lon": 8.0645622
  },
  "Epalinges": {
    "name": "Epalinges",
    "zip": "1066",
    "canton": "VD",
    "lat": 46.547327,
    "lon": 6.6726245
  },
  "Ependes (VD)": {
    "name": "Ependes (VD)",
    "zip": "1434",
    "canton": "VD",
    "lat": 46.7431583,
    "lon": 6.6083432
  },
  "Ergisch": {
    "name": "Ergisch",
    "zip": "3947",
    "canton": "VS",
    "lat": 46.292777,
    "lon": 7.7148033
  },
  "Ermensee": {
    "name": "Ermensee",
    "zip": "6294",
    "canton": "LU",
    "lat": 47.2282246,
    "lon": 8.2409195
  },
  "Ernen": {
    "name": "Ernen",
    "zip": "3995",
    "canton": "VS",
    "lat": 46.3988816,
    "lon": 8.1460083
  },
  "Eschenbach (LU)": {
    "name": "Eschenbach (LU)",
    "zip": "6274",
    "canton": "LU",
    "lat": 47.1330227,
    "lon": 8.317969
  },
  "Escholzmatt-Marbach": {
    "name": "Escholzmatt-Marbach",
    "zip": "6182",
    "canton": "LU",
    "lat": 46.8904314,
    "lon": 7.9176511
  },
  "Essertines-sur-Rolle": {
    "name": "Essertines-sur-Rolle",
    "zip": "1186",
    "canton": "VD",
    "lat": 46.4924891,
    "lon": 6.3170166
  },
  "Essertines-sur-Yverdon": {
    "name": "Essertines-sur-Yverdon",
    "zip": "1417",
    "canton": "VD",
    "lat": 46.7152242,
    "lon": 6.6383585
  },
  "Estavayer": {
    "name": "Estavayer",
    "zip": "1470",
    "canton": "FR",
    "lat": 46.865139,
    "lon": 6.8456489
  },
  "Etagnières": {
    "name": "Etagnières",
    "zip": "1037",
    "canton": "VD",
    "lat": 46.6001382,
    "lon": 6.6134167
  },
  "Etoy": {
    "name": "Etoy",
    "zip": "1163",
    "canton": "VD",
    "lat": 46.4860906,
    "lon": 6.4193113
  },
  "Ettiswil": {
    "name": "Ettiswil",
    "zip": "6218",
    "canton": "LU",
    "lat": 47.1483925,
    "lon": 8.0150668
  },
  "Evionnaz": {
    "name": "Evionnaz",
    "zip": "1902",
    "canton": "VS",
    "lat": 46.1794464,
    "lon": 7.0225695
  },
  "Evolène": {
    "name": "Evolène",
    "zip": "1983",
    "canton": "VS",
    "lat": 46.1129048,
    "lon": 7.4958022
  },
  "Eysins": {
    "name": "Eysins",
    "zip": "1262",
    "canton": "VD",
    "lat": 46.3807218,
    "lon": 6.2042596
  },
  "Fahy": {
    "name": "Fahy",
    "zip": "2916",
    "canton": "JU",
    "lat": 47.4184563,
    "lon": 6.9505047
  },
  "Faoug": {
    "name": "Faoug",
    "zip": "1595",
    "canton": "VD",
    "lat": 46.9057923,
    "lon": 7.0740011
  },
  "Ferden": {
    "name": "Ferden",
    "zip": "3916",
    "canton": "VS",
    "lat": 46.3942848,
    "lon": 7.7591799
  },
  "Ferpicloz": {
    "name": "Ferpicloz",
    "zip": "1724",
    "canton": "FR",
    "lat": 46.7468308,
    "lon": 7.1643978
  },
  "Ferreyres": {
    "name": "Ferreyres",
    "zip": "1313",
    "canton": "VD",
    "lat": 46.6577788,
    "lon": 6.4860425
  },
  "Fey": {
    "name": "Fey",
    "zip": "1044",
    "canton": "VD",
    "lat": 46.675524,
    "lon": 6.6827085
  },
  "Fiesch": {
    "name": "Fiesch",
    "zip": "3984",
    "canton": "VS",
    "lat": 46.402946,
    "lon": 8.1341501
  },
  "Fieschertal": {
    "name": "Fieschertal",
    "zip": "3984",
    "canton": "VS",
    "lat": 46.4245701,
    "lon": 8.1427862
  },
  "Fiez": {
    "name": "Fiez",
    "zip": "1420",
    "canton": "VD",
    "lat": 46.8280744,
    "lon": 6.6240029
  },
  "Finhaut": {
    "name": "Finhaut",
    "zip": "1925",
    "canton": "VS",
    "lat": 46.082805,
    "lon": 6.9765238
  },
  "Fischbach": {
    "name": "Fischbach",
    "zip": "6145",
    "canton": "LU",
    "lat": 47.1515399,
    "lon": 7.9081489
  },
  "Flühli": {
    "name": "Flühli",
    "zip": "6173",
    "canton": "LU",
    "lat": 46.8840067,
    "lon": 8.01564
  },
  "Fontaines-sur-Grandson": {
    "name": "Fontaines-sur-Grandson",
    "zip": "1421",
    "canton": "VD",
    "lat": 46.8353764,
    "lon": 6.6193942
  },
  "Fontenais": {
    "name": "Fontenais",
    "zip": "2902",
    "canton": "JU",
    "lat": 47.4034795,
    "lon": 7.080589
  },
  "Forel (Lavaux)": {
    "name": "Forel (Lavaux)",
    "zip": "1072",
    "canton": "VD",
    "lat": 46.5419511,
    "lon": 6.77037
  },
  "Founex": {
    "name": "Founex",
    "zip": "1297",
    "canton": "VD",
    "lat": 46.3338174,
    "lon": 6.1943733
  },
  "Fribourg": {
    "name": "Fribourg",
    "zip": "1700",
    "canton": "FR",
    "lat": 46.8052,
    "lon": 7.1615
  },
  "Froideville": {
    "name": "Froideville",
    "zip": "1055",
    "canton": "VD",
    "lat": 46.6012433,
    "lon": 6.6816355
  },
  "Fräschels": {
    "name": "Fräschels",
    "zip": "3284",
    "canton": "FR",
    "lat": 46.9979736,
    "lon": 7.2075009
  },
  "Fully": {
    "name": "Fully",
    "zip": "1926",
    "canton": "VS",
    "lat": 46.1390008,
    "lon": 7.1146544
  },
  "Féchy": {
    "name": "Féchy",
    "zip": "1173",
    "canton": "VD",
    "lat": 46.4786555,
    "lon": 6.3747532
  },
  "Fétigny": {
    "name": "Fétigny",
    "zip": "1532",
    "canton": "FR",
    "lat": 46.7964416,
    "lon": 6.9139995
  },
  "Gampel-Bratsch": {
    "name": "Gampel-Bratsch",
    "zip": "3945",
    "canton": "VS",
    "lat": 46.336953,
    "lon": 7.7263773
  },
  "Genolier": {
    "name": "Genolier",
    "zip": "1272",
    "canton": "VD",
    "lat": 46.4350251,
    "lon": 6.2178235
  },
  "Genthod": {
    "name": "Genthod",
    "zip": "1294",
    "canton": "GE",
    "lat": 46.2644177,
    "lon": 6.1570636
  },
  "Genève": {
    "name": "Genève",
    "zip": "1200",
    "canton": "GE",
    "lat": 46.2044,
    "lon": 6.1432
  },
  "Geuensee": {
    "name": "Geuensee",
    "zip": "6232",
    "canton": "LU",
    "lat": 47.2002101,
    "lon": 8.1095256
  },
  "Gibloux": {
    "name": "Gibloux",
    "zip": "1695",
    "canton": "FR",
    "lat": 46.7186571,
    "lon": 7.0603348
  },
  "Giez": {
    "name": "Giez",
    "zip": "1429",
    "canton": "VD",
    "lat": 46.8117633,
    "lon": 6.6177511
  },
  "Giffers": {
    "name": "Giffers",
    "zip": "1735",
    "canton": "FR",
    "lat": 46.7615024,
    "lon": 7.210014
  },
  "Gilly": {
    "name": "Gilly",
    "zip": "1182",
    "canton": "VD",
    "lat": 46.4575111,
    "lon": 6.2969883
  },
  "Gimel": {
    "name": "Gimel",
    "zip": "1188",
    "canton": "VD",
    "lat": 46.5088102,
    "lon": 6.3070695
  },
  "Gingins": {
    "name": "Gingins",
    "zip": "1276",
    "canton": "VD",
    "lat": 46.4094508,
    "lon": 6.1779167
  },
  "Gisikon": {
    "name": "Gisikon",
    "zip": "6038",
    "canton": "LU",
    "lat": 47.1262971,
    "lon": 8.4006518
  },
  "Givisiez": {
    "name": "Givisiez",
    "zip": "1762",
    "canton": "FR",
    "lat": 46.8145053,
    "lon": 7.1295693
  },
  "Givrins": {
    "name": "Givrins",
    "zip": "1271",
    "canton": "VD",
    "lat": 46.4289779,
    "lon": 6.2017676
  },
  "Gland": {
    "name": "Gland",
    "zip": "1196",
    "canton": "VD",
    "lat": 46.4239425,
    "lon": 6.2655115
  },
  "Gletterens": {
    "name": "Gletterens",
    "zip": "1544",
    "canton": "FR",
    "lat": 46.8953435,
    "lon": 6.9375533
  },
  "Gollion": {
    "name": "Gollion",
    "zip": "1124",
    "canton": "VD",
    "lat": 46.5852339,
    "lon": 6.5088361
  },
  "Goms": {
    "name": "Goms",
    "zip": "3989",
    "canton": "VS",
    "lat": 46.4802471,
    "lon": 8.169441
  },
  "Goumoëns": {
    "name": "Goumoëns",
    "zip": "1376",
    "canton": "VD",
    "lat": 46.6588604,
    "lon": 6.6044891
  },
  "Grancy": {
    "name": "Grancy",
    "zip": "1117",
    "canton": "VD",
    "lat": 46.5915221,
    "lon": 6.4649462
  },
  "Grandcour": {
    "name": "Grandcour",
    "zip": "1543",
    "canton": "VD",
    "lat": 46.8718747,
    "lon": 6.928747
  },
  "Grandevent": {
    "name": "Grandevent",
    "zip": "1421",
    "canton": "VD",
    "lat": 46.8388002,
    "lon": 6.6065632
  },
  "Grandfontaine": {
    "name": "Grandfontaine",
    "zip": "2908",
    "canton": "JU",
    "lat": 47.3913356,
    "lon": 6.9395757
  },
  "Grandson": {
    "name": "Grandson",
    "zip": "1422",
    "canton": "VD",
    "lat": 46.8086306,
    "lon": 6.6417532
  },
  "Grandvillard": {
    "name": "Grandvillard",
    "zip": "1666",
    "canton": "FR",
    "lat": 46.5392932,
    "lon": 7.0849664
  },
  "Granges (Veveyse)": {
    "name": "Granges (Veveyse)",
    "zip": "1614",
    "canton": "FR",
    "lat": 46.5245766,
    "lon": 6.829546
  },
  "Granges-Paccot": {
    "name": "Granges-Paccot",
    "zip": "1763",
    "canton": "FR",
    "lat": 46.8239731,
    "lon": 7.1441932
  },
  "Grangettes": {
    "name": "Grangettes",
    "zip": "1686",
    "canton": "FR",
    "lat": 46.6783349,
    "lon": 6.9620824
  },
  "Greng": {
    "name": "Greng",
    "zip": "3280",
    "canton": "FR",
    "lat": 46.9133548,
    "lon": 7.090703
  },
  "Grengiols": {
    "name": "Grengiols",
    "zip": "3993",
    "canton": "VS",
    "lat": 46.3729638,
    "lon": 8.092535
  },
  "Grens": {
    "name": "Grens",
    "zip": "1274",
    "canton": "VD",
    "lat": 46.3937213,
    "lon": 6.1916774
  },
  "Greppen": {
    "name": "Greppen",
    "zip": "6404",
    "canton": "LU",
    "lat": 47.054825,
    "lon": 8.4306044
  },
  "Grimisuat": {
    "name": "Grimisuat",
    "zip": "1971",
    "canton": "VS",
    "lat": 46.2606742,
    "lon": 7.385846
  },
  "Grolley-Ponthaux": {
    "name": "Grolley-Ponthaux",
    "zip": "1772",
    "canton": "FR",
    "lat": 46.8279037,
    "lon": 7.0616159
  },
  "Grossdietwil": {
    "name": "Grossdietwil",
    "zip": "6146",
    "canton": "LU",
    "lat": 47.170687,
    "lon": 7.887705
  },
  "Grosswangen": {
    "name": "Grosswangen",
    "zip": "6022",
    "canton": "LU",
    "lat": 47.1322635,
    "lon": 8.0491183
  },
  "Gruyères": {
    "name": "Gruyères",
    "zip": "1663",
    "canton": "FR",
    "lat": 46.5836823,
    "lon": 7.08159
  },
  "Gryon": {
    "name": "Gryon",
    "zip": "1882",
    "canton": "VD",
    "lat": 46.2746628,
    "lon": 7.063671
  },
  "Grächen": {
    "name": "Grächen",
    "zip": "3925",
    "canton": "VS",
    "lat": 46.1960178,
    "lon": 7.8421612
  },
  "Grône": {
    "name": "Grône",
    "zip": "3979",
    "canton": "VS",
    "lat": 46.251007,
    "lon": 7.4582384
  },
  "Gurmels": {
    "name": "Gurmels",
    "zip": "3212",
    "canton": "FR",
    "lat": 46.8928043,
    "lon": 7.1757732
  },
  "Guttet-Feschel": {
    "name": "Guttet-Feschel",
    "zip": "3956",
    "canton": "VS",
    "lat": 46.3507092,
    "lon": 7.6744165
  },
  "Gy": {
    "name": "Gy",
    "zip": "1251",
    "canton": "GE",
    "lat": 46.252665,
    "lon": 6.2582938
  },
  "Hasle (LU)": {
    "name": "Hasle (LU)",
    "zip": "6166",
    "canton": "LU",
    "lat": 46.9796105,
    "lon": 8.0526728
  },
  "Haut-Intyamon": {
    "name": "Haut-Intyamon",
    "zip": "1669",
    "canton": "FR",
    "lat": 46.5210722,
    "lon": 7.0602291
  },
  "Haute-Ajoie": {
    "name": "Haute-Ajoie",
    "zip": "2907",
    "canton": "JU",
    "lat": 47.3863988,
    "lon": 6.9833047
  },
  "Haute-Sorne": {
    "name": "Haute-Sorne",
    "zip": "2854",
    "canton": "JU",
    "lat": 47.3244146,
    "lon": 7.2287686
  },
  "Hautemorges": {
    "name": "Hautemorges",
    "zip": "1110",
    "canton": "VD",
    "lat": 46.5653843,
    "lon": 6.4257802
  },
  "Hauterive (FR)": {
    "name": "Hauterive (FR)",
    "zip": "1725",
    "canton": "FR",
    "lat": 46.7566336,
    "lon": 7.0947394
  },
  "Hauteville": {
    "name": "Hauteville",
    "zip": "1648",
    "canton": "FR",
    "lat": 46.6696479,
    "lon": 7.1083702
  },
  "Heitenried": {
    "name": "Heitenried",
    "zip": "1714",
    "canton": "FR",
    "lat": 46.8259771,
    "lon": 7.3027277
  },
  "Henniez": {
    "name": "Henniez",
    "zip": "1525",
    "canton": "VD",
    "lat": 46.7422549,
    "lon": 6.8834048
  },
  "Hergiswil bei Willisau": {
    "name": "Hergiswil bei Willisau",
    "zip": "6133",
    "canton": "LU",
    "lat": 47.0844337,
    "lon": 7.9575516
  },
  "Hermance": {
    "name": "Hermance",
    "zip": "1248",
    "canton": "GE",
    "lat": 46.3021881,
    "lon": 6.2437346
  },
  "Hermenches": {
    "name": "Hermenches",
    "zip": "1513",
    "canton": "VD",
    "lat": 46.6419061,
    "lon": 6.7602141
  },
  "Hildisrieden": {
    "name": "Hildisrieden",
    "zip": "6024",
    "canton": "LU",
    "lat": 47.1513607,
    "lon": 8.2266792
  },
  "Hitzkirch": {
    "name": "Hitzkirch",
    "zip": "6285",
    "canton": "LU",
    "lat": 47.2250438,
    "lon": 8.2632119
  },
  "Hochdorf": {
    "name": "Hochdorf",
    "zip": "6280",
    "canton": "LU",
    "lat": 47.1665361,
    "lon": 8.2899709
  },
  "Hohenrain": {
    "name": "Hohenrain",
    "zip": "6276",
    "canton": "LU",
    "lat": 47.1797457,
    "lon": 8.3156425
  },
  "Horw": {
    "name": "Horw",
    "zip": "6048",
    "canton": "LU",
    "lat": 47.0185008,
    "lon": 8.3107797
  },
  "Hérémence": {
    "name": "Hérémence",
    "zip": "1987",
    "canton": "VS",
    "lat": 46.1807413,
    "lon": 7.4057866
  },
  "Icogne": {
    "name": "Icogne",
    "zip": "1977",
    "canton": "VS",
    "lat": 46.2907802,
    "lon": 7.4391182
  },
  "Inden": {
    "name": "Inden",
    "zip": "3953",
    "canton": "VS",
    "lat": 46.3440813,
    "lon": 7.6169972
  },
  "Inwil": {
    "name": "Inwil",
    "zip": "6034",
    "canton": "LU",
    "lat": 47.1220031,
    "lon": 8.3508443
  },
  "Isérables": {
    "name": "Isérables",
    "zip": "1914",
    "canton": "VS",
    "lat": 46.1621386,
    "lon": 7.2445214
  },
  "Jaun": {
    "name": "Jaun",
    "zip": "1656",
    "canton": "FR",
    "lat": 46.6113953,
    "lon": 7.2761312
  },
  "Jongny": {
    "name": "Jongny",
    "zip": "1805",
    "canton": "VD",
    "lat": 46.4785042,
    "lon": 6.8414194
  },
  "Jorat-Menthue": {
    "name": "Jorat-Menthue",
    "zip": "1054",
    "canton": "VD",
    "lat": 46.6305367,
    "lon": 6.7192073
  },
  "Jorat-Mézières": {
    "name": "Jorat-Mézières",
    "zip": "1083",
    "canton": "VD",
    "lat": 46.5967734,
    "lon": 6.7764275
  },
  "Jouxtens-Mézery": {
    "name": "Jouxtens-Mézery",
    "zip": "1008",
    "canton": "VD",
    "lat": 46.5532677,
    "lon": 6.5980688
  },
  "Juriens": {
    "name": "Juriens",
    "zip": "1326",
    "canton": "VD",
    "lat": 46.6911431,
    "lon": 6.4500103
  },
  "Jussy": {
    "name": "Jussy",
    "zip": "1254",
    "canton": "GE",
    "lat": 46.2367629,
    "lon": 6.269155
  },
  "Kerzers": {
    "name": "Kerzers",
    "zip": "3210",
    "canton": "FR",
    "lat": 46.9761315,
    "lon": 7.1972834
  },
  "Kippel": {
    "name": "Kippel",
    "zip": "3917",
    "canton": "VS",
    "lat": 46.3991936,
    "lon": 7.7717164
  },
  "Kleinbösingen": {
    "name": "Kleinbösingen",
    "zip": "3213",
    "canton": "FR",
    "lat": 46.8944182,
    "lon": 7.2041572
  },
  "Knutwil": {
    "name": "Knutwil",
    "zip": "6213",
    "canton": "LU",
    "lat": 47.199397,
    "lon": 8.070364
  },
  "Kriens": {
    "name": "Kriens",
    "zip": "6010",
    "canton": "LU",
    "lat": 47.034146,
    "lon": 8.2807994
  },
  "L'Abbaye": {
    "name": "L'Abbaye",
    "zip": "1344",
    "canton": "VD",
    "lat": 46.6492716,
    "lon": 6.3186169
  },
  "L'Abergement": {
    "name": "L'Abergement",
    "zip": "1355",
    "canton": "VD",
    "lat": 46.7537886,
    "lon": 6.4886777
  },
  "L'Isle": {
    "name": "L'Isle",
    "zip": "1148",
    "canton": "VD",
    "lat": 46.6187582,
    "lon": 6.411704
  },
  "La Baroche": {
    "name": "La Baroche",
    "zip": "2908",
    "canton": "JU",
    "lat": 47.4080508,
    "lon": 7.2043904
  },
  "La Brillaz": {
    "name": "La Brillaz",
    "zip": "1725",
    "canton": "FR",
    "lat": 46.765379,
    "lon": 7.016702
  },
  "La Brévine": {
    "name": "La Brévine",
    "zip": "2406",
    "canton": "NE",
    "lat": 46.9801928,
    "lon": 6.6070172
  },
  "La Chaux (Cossonay)": {
    "name": "La Chaux (Cossonay)",
    "zip": "1308",
    "canton": "VD",
    "lat": 46.61604,
    "lon": 6.472555
  },
  "La Chaux-de-Fonds": {
    "name": "La Chaux-de-Fonds",
    "zip": "2300",
    "canton": "NE",
    "lat": 47.1057,
    "lon": 6.8267
  },
  "La Chaux-du-Milieu": {
    "name": "La Chaux-du-Milieu",
    "zip": "2405",
    "canton": "NE",
    "lat": 47.0135381,
    "lon": 6.7030562
  },
  "La Côte-aux-Fées": {
    "name": "La Côte-aux-Fées",
    "zip": "2117",
    "canton": "NE",
    "lat": 46.8666659,
    "lon": 6.4886238
  },
  "La Grande Béroche": {
    "name": "La Grande Béroche",
    "zip": "2024",
    "canton": "NE",
    "lat": 46.9089776,
    "lon": 6.7578858
  },
  "La Praz": {
    "name": "La Praz",
    "zip": "1148",
    "canton": "VD",
    "lat": 46.6675257,
    "lon": 6.4272029
  },
  "La Rippe": {
    "name": "La Rippe",
    "zip": "1278",
    "canton": "VD",
    "lat": 46.3814959,
    "lon": 6.1516031
  },
  "La Roche": {
    "name": "La Roche",
    "zip": "1634",
    "canton": "FR",
    "lat": 46.6966582,
    "lon": 7.1393476
  },
  "La Sagne": {
    "name": "La Sagne",
    "zip": "2314",
    "canton": "NE",
    "lat": 47.0385519,
    "lon": 6.7984212
  },
  "La Sarraz": {
    "name": "La Sarraz",
    "zip": "1315",
    "canton": "VD",
    "lat": 46.6590583,
    "lon": 6.5124448
  },
  "La Sonnaz": {
    "name": "La Sonnaz",
    "zip": "1782",
    "canton": "FR",
    "lat": 46.8349258,
    "lon": 7.1192544
  },
  "La Tour-de-Peilz": {
    "name": "La Tour-de-Peilz",
    "zip": "1814",
    "canton": "VD",
    "lat": 46.4537524,
    "lon": 6.8569063
  },
  "La Verrerie": {
    "name": "La Verrerie",
    "zip": "1624",
    "canton": "FR",
    "lat": 46.5894327,
    "lon": 6.9213069
  },
  "Laconnex": {
    "name": "Laconnex",
    "zip": "1287",
    "canton": "GE",
    "lat": 46.155596,
    "lon": 6.0360307
  },
  "Lajoux (JU)": {
    "name": "Lajoux (JU)",
    "zip": "2718",
    "canton": "JU",
    "lat": 47.2790114,
    "lon": 7.1359592
  },
  "Lalden": {
    "name": "Lalden",
    "zip": "3931",
    "canton": "VS",
    "lat": 46.300193,
    "lon": 7.900266
  },
  "Lancy": {
    "name": "Lancy",
    "zip": "1212",
    "canton": "GE",
    "lat": 46.1904,
    "lon": 6.1125
  },
  "Laténa": {
    "name": "Laténa",
    "zip": "2400",
    "canton": "NE",
    "lat": 47.0265631,
    "lon": 6.9802265
  },
  "Lausanne": {
    "name": "Lausanne",
    "zip": "1000",
    "canton": "VD",
    "lat": 46.5233,
    "lon": 6.6344
  },
  "Lavey-Morcles": {
    "name": "Lavey-Morcles",
    "zip": "1892",
    "canton": "VD",
    "lat": 46.2073771,
    "lon": 7.0414641
  },
  "Lavigny": {
    "name": "Lavigny",
    "zip": "1175",
    "canton": "VD",
    "lat": 46.5011843,
    "lon": 6.4045912
  },
  "Lax": {
    "name": "Lax",
    "zip": "3994",
    "canton": "VS",
    "lat": 46.3888757,
    "lon": 8.1195682
  },
  "Le Bémont (JU)": {
    "name": "Le Bémont (JU)",
    "zip": "2360",
    "canton": "JU",
    "lat": 47.2637024,
    "lon": 7.0135465
  },
  "Le Cerneux-Péquignot": {
    "name": "Le Cerneux-Péquignot",
    "zip": "2414",
    "canton": "NE",
    "lat": 47.0166187,
    "lon": 6.6652883
  },
  "Le Chenit": {
    "name": "Le Chenit",
    "zip": "1347",
    "canton": "VD",
    "lat": 46.6046637,
    "lon": 6.2337695
  },
  "Le Châtelard": {
    "name": "Le Châtelard",
    "zip": "1689",
    "canton": "FR",
    "lat": 46.6775844,
    "lon": 6.9779194
  },
  "Le Flon": {
    "name": "Le Flon",
    "zip": "1699",
    "canton": "FR",
    "lat": 46.6038297,
    "lon": 6.8732314
  },
  "Le Grand-Saconnex": {
    "name": "Le Grand-Saconnex",
    "zip": "1218",
    "canton": "GE",
    "lat": 46.2363321,
    "lon": 6.126532
  },
  "Le Landeron": {
    "name": "Le Landeron",
    "zip": "2525",
    "canton": "NE",
    "lat": 47.0554312,
    "lon": 7.0702155
  },
  "Le Lieu": {
    "name": "Le Lieu",
    "zip": "1345",
    "canton": "VD",
    "lat": 46.6462186,
    "lon": 6.280313
  },
  "Le Locle": {
    "name": "Le Locle",
    "zip": "2400",
    "canton": "NE",
    "lat": 47.0555907,
    "lon": 6.745454
  },
  "Le Mont-sur-Lausanne": {
    "name": "Le Mont-sur-Lausanne",
    "zip": "1052",
    "canton": "VD",
    "lat": 46.5530996,
    "lon": 6.6354534
  },
  "Le Mouret": {
    "name": "Le Mouret",
    "zip": "1724",
    "canton": "FR",
    "lat": 46.7487136,
    "lon": 7.1718165
  },
  "Le Noirmont": {
    "name": "Le Noirmont",
    "zip": "2340",
    "canton": "JU",
    "lat": 47.2243743,
    "lon": 6.9567612
  },
  "Le Pâquier (FR)": {
    "name": "Le Pâquier (FR)",
    "zip": "1661",
    "canton": "FR",
    "lat": 46.5950644,
    "lon": 7.0527454
  },
  "Le Vaud": {
    "name": "Le Vaud",
    "zip": "1261",
    "canton": "VD",
    "lat": 46.4774891,
    "lon": 6.2355007
  },
  "Lens": {
    "name": "Lens",
    "zip": "1978",
    "canton": "VS",
    "lat": 46.2798952,
    "lon": 7.4461626
  },
  "Les Bois": {
    "name": "Les Bois",
    "zip": "2336",
    "canton": "JU",
    "lat": 47.1763121,
    "lon": 6.9049147
  },
  "Les Breuleux": {
    "name": "Les Breuleux",
    "zip": "2345",
    "canton": "JU",
    "lat": 47.2115671,
    "lon": 7.0054836
  },
  "Les Clées": {
    "name": "Les Clées",
    "zip": "1356",
    "canton": "VD",
    "lat": 46.7320659,
    "lon": 6.4626883
  },
  "Les Enfers": {
    "name": "Les Enfers",
    "zip": "2363",
    "canton": "JU",
    "lat": 47.2885745,
    "lon": 7.047358
  },
  "Les Genevez (JU)": {
    "name": "Les Genevez (JU)",
    "zip": "2714",
    "canton": "JU",
    "lat": 47.2567802,
    "lon": 7.1293599
  },
  "Les Montets": {
    "name": "Les Montets",
    "zip": "1483",
    "canton": "FR",
    "lat": 46.8102924,
    "lon": 6.8499622
  },
  "Les Planchettes": {
    "name": "Les Planchettes",
    "zip": "2325",
    "canton": "NE",
    "lat": 47.1067134,
    "lon": 6.7707244
  },
  "Les Ponts-de-Martel": {
    "name": "Les Ponts-de-Martel",
    "zip": "2316",
    "canton": "NE",
    "lat": 46.9990848,
    "lon": 6.7317108
  },
  "Les Verrières": {
    "name": "Les Verrières",
    "zip": "2126",
    "canton": "NE",
    "lat": 46.904458,
    "lon": 6.4820688
  },
  "Leuk": {
    "name": "Leuk",
    "zip": "3953",
    "canton": "VS",
    "lat": 46.317041,
    "lon": 7.6353323
  },
  "Leukerbad": {
    "name": "Leukerbad",
    "zip": "3954",
    "canton": "VS",
    "lat": 46.3793158,
    "lon": 7.6267416
  },
  "Leysin": {
    "name": "Leysin",
    "zip": "1854",
    "canton": "VD",
    "lat": 46.3438701,
    "lon": 7.0148403
  },
  "Leytron": {
    "name": "Leytron",
    "zip": "1912",
    "canton": "VS",
    "lat": 46.1859543,
    "lon": 7.2068108
  },
  "Liddes": {
    "name": "Liddes",
    "zip": "1945",
    "canton": "VS",
    "lat": 45.9917015,
    "lon": 7.1865245
  },
  "Lignerolle": {
    "name": "Lignerolle",
    "zip": "1357",
    "canton": "VD",
    "lat": 46.7407875,
    "lon": 6.4559997
  },
  "Lignières": {
    "name": "Lignières",
    "zip": "2523",
    "canton": "NE",
    "lat": 47.0828386,
    "lon": 7.0661591
  },
  "Lonay": {
    "name": "Lonay",
    "zip": "1027",
    "canton": "VD",
    "lat": 46.5265684,
    "lon": 6.5206068
  },
  "Longirod": {
    "name": "Longirod",
    "zip": "1261",
    "canton": "VD",
    "lat": 46.4943826,
    "lon": 6.2581282
  },
  "Lovatens": {
    "name": "Lovatens",
    "zip": "1682",
    "canton": "VD",
    "lat": 46.6918052,
    "lon": 6.8641889
  },
  "Lucens": {
    "name": "Lucens",
    "zip": "1522",
    "canton": "VD",
    "lat": 46.708447,
    "lon": 6.8389766
  },
  "Luins": {
    "name": "Luins",
    "zip": "1184",
    "canton": "VD",
    "lat": 46.442819,
    "lon": 6.271154
  },
  "Lully (FR)": {
    "name": "Lully (FR)",
    "zip": "1470",
    "canton": "FR",
    "lat": 46.8339813,
    "lon": 6.8445369
  },
  "Lully (VD)": {
    "name": "Lully (VD)",
    "zip": "1132",
    "canton": "VD",
    "lat": 46.5052587,
    "lon": 6.4647302
  },
  "Lussery-Villars": {
    "name": "Lussery-Villars",
    "zip": "1307",
    "canton": "VD",
    "lat": 46.6309961,
    "lon": 6.5251994
  },
  "Lussy-sur-Morges": {
    "name": "Lussy-sur-Morges",
    "zip": "1167",
    "canton": "VD",
    "lat": 46.5028627,
    "lon": 6.4508849
  },
  "Luthern": {
    "name": "Luthern",
    "zip": "6156",
    "canton": "LU",
    "lat": 47.0589604,
    "lon": 7.9169068
  },
  "Lutry": {
    "name": "Lutry",
    "zip": "1095",
    "canton": "VD",
    "lat": 46.5032766,
    "lon": 6.6867879
  },
  "Luzern": {
    "name": "Luzern",
    "zip": "6000",
    "canton": "LU",
    "lat": 47.0502,
    "lon": 8.3093
  },
  "Malters": {
    "name": "Malters",
    "zip": "6102",
    "canton": "LU",
    "lat": 47.0383996,
    "lon": 8.1830555
  },
  "Maracon": {
    "name": "Maracon",
    "zip": "1613",
    "canton": "VD",
    "lat": 46.5500232,
    "lon": 6.8727444
  },
  "Marchissy": {
    "name": "Marchissy",
    "zip": "1261",
    "canton": "VD",
    "lat": 46.4880255,
    "lon": 6.2469182
  },
  "Marly": {
    "name": "Marly",
    "zip": "1723",
    "canton": "FR",
    "lat": 46.7747743,
    "lon": 7.1601827
  },
  "Marsens": {
    "name": "Marsens",
    "zip": "1633",
    "canton": "FR",
    "lat": 46.6556713,
    "lon": 7.0640919
  },
  "Martigny": {
    "name": "Martigny",
    "zip": "1920",
    "canton": "VS",
    "lat": 46.1024,
    "lon": 7.0737
  },
  "Martigny-Combe": {
    "name": "Martigny-Combe",
    "zip": "1921",
    "canton": "VS",
    "lat": 46.0670887,
    "lon": 7.0370217
  },
  "Massongex": {
    "name": "Massongex",
    "zip": "1869",
    "canton": "VS",
    "lat": 46.2427711,
    "lon": 6.9879674
  },
  "Massonnens": {
    "name": "Massonnens",
    "zip": "1692",
    "canton": "FR",
    "lat": 46.6991888,
    "lon": 6.975348
  },
  "Mathod": {
    "name": "Mathod",
    "zip": "1438",
    "canton": "VD",
    "lat": 46.7667908,
    "lon": 6.5647296
  },
  "Matran": {
    "name": "Matran",
    "zip": "1753",
    "canton": "FR",
    "lat": 46.7861706,
    "lon": 7.0973405
  },
  "Mauborget": {
    "name": "Mauborget",
    "zip": "1450",
    "canton": "VD",
    "lat": 46.8558706,
    "lon": 6.6146584
  },
  "Mauensee": {
    "name": "Mauensee",
    "zip": "6216",
    "canton": "LU",
    "lat": 47.1684849,
    "lon": 8.0670726
  },
  "Mauraz": {
    "name": "Mauraz",
    "zip": "1148",
    "canton": "VD",
    "lat": 46.6054096,
    "lon": 6.4227461
  },
  "Meggen": {
    "name": "Meggen",
    "zip": "6045",
    "canton": "LU",
    "lat": 47.0470746,
    "lon": 8.3733992
  },
  "Meierskappel": {
    "name": "Meierskappel",
    "zip": "6344",
    "canton": "LU",
    "lat": 47.1239632,
    "lon": 8.4435423
  },
  "Meinier": {
    "name": "Meinier",
    "zip": "1252",
    "canton": "GE",
    "lat": 46.2467188,
    "lon": 6.2333553
  },
  "Menznau": {
    "name": "Menznau",
    "zip": "6125",
    "canton": "LU",
    "lat": 47.0838106,
    "lon": 8.040131
  },
  "Mervelier": {
    "name": "Mervelier",
    "zip": "2827",
    "canton": "JU",
    "lat": 47.343821,
    "lon": 7.4984971
  },
  "Mettembert": {
    "name": "Mettembert",
    "zip": "2806",
    "canton": "JU",
    "lat": 47.3981573,
    "lon": 7.3220141
  },
  "Mex (VD)": {
    "name": "Mex (VD)",
    "zip": "1031",
    "canton": "VD",
    "lat": 46.5784364,
    "lon": 6.5538256
  },
  "Meyriez": {
    "name": "Meyriez",
    "zip": "3280",
    "canton": "FR",
    "lat": 46.9234895,
    "lon": 7.1067844
  },
  "Meyrin": {
    "name": "Meyrin",
    "zip": "1217",
    "canton": "GE",
    "lat": 46.2283226,
    "lon": 6.0712016
  },
  "Mies": {
    "name": "Mies",
    "zip": "1295",
    "canton": "VD",
    "lat": 46.3060321,
    "lon": 6.1723029
  },
  "Milvignes": {
    "name": "Milvignes",
    "zip": "2013",
    "canton": "NE",
    "lat": 46.9699851,
    "lon": 6.8491845
  },
  "Misery-Courtion": {
    "name": "Misery-Courtion",
    "zip": "1721",
    "canton": "FR",
    "lat": 46.8584541,
    "lon": 7.0843853
  },
  "Missy": {
    "name": "Missy",
    "zip": "1565",
    "canton": "VD",
    "lat": 46.8798752,
    "lon": 6.9698165
  },
  "Moiry": {
    "name": "Moiry",
    "zip": "1148",
    "canton": "VD",
    "lat": 46.6485773,
    "lon": 6.4552338
  },
  "Mollens (VD)": {
    "name": "Mollens (VD)",
    "zip": "1146",
    "canton": "VD",
    "lat": 46.577232,
    "lon": 6.3634849
  },
  "Molondin": {
    "name": "Molondin",
    "zip": "1415",
    "canton": "VD",
    "lat": 46.7606762,
    "lon": 6.7492454
  },
  "Mont-Noble": {
    "name": "Mont-Noble",
    "zip": "1966",
    "canton": "VS",
    "lat": 46.2030142,
    "lon": 7.4622953
  },
  "Mont-Vully": {
    "name": "Mont-Vully",
    "zip": "1786",
    "canton": "FR",
    "lat": 46.954815,
    "lon": 7.0875475
  },
  "Mont-la-Ville": {
    "name": "Mont-la-Ville",
    "zip": "1148",
    "canton": "VD",
    "lat": 46.645546,
    "lon": 6.4077926
  },
  "Mont-sur-Rolle": {
    "name": "Mont-sur-Rolle",
    "zip": "1185",
    "canton": "VD",
    "lat": 46.470957,
    "lon": 6.3365929
  },
  "Montagny (FR)": {
    "name": "Montagny (FR)",
    "zip": "1776",
    "canton": "FR",
    "lat": 46.8046623,
    "lon": 6.9864444
  },
  "Montagny-près-Yverdon": {
    "name": "Montagny-près-Yverdon",
    "zip": "1442",
    "canton": "VD",
    "lat": 46.7914576,
    "lon": 6.6117904
  },
  "Montanaire": {
    "name": "Montanaire",
    "zip": "1407",
    "canton": "VD",
    "lat": 46.6941453,
    "lon": 6.7609465
  },
  "Montcherand": {
    "name": "Montcherand",
    "zip": "1354",
    "canton": "VD",
    "lat": 46.7330803,
    "lon": 6.5102099
  },
  "Montfaucon": {
    "name": "Montfaucon",
    "zip": "2362",
    "canton": "JU",
    "lat": 47.2822194,
    "lon": 7.0512919
  },
  "Monthey": {
    "name": "Monthey",
    "zip": "1870",
    "canton": "VS",
    "lat": 46.2543,
    "lon": 6.9584
  },
  "Montilliez": {
    "name": "Montilliez",
    "zip": "1041",
    "canton": "VD",
    "lat": 46.6451211,
    "lon": 6.6835004
  },
  "Montpreveyres": {
    "name": "Montpreveyres",
    "zip": "1081",
    "canton": "VD",
    "lat": 46.581339,
    "lon": 6.740799
  },
  "Montreux": {
    "name": "Montreux",
    "zip": "1820",
    "canton": "VD",
    "lat": 46.4312,
    "lon": 6.9123
  },
  "Montricher": {
    "name": "Montricher",
    "zip": "1147",
    "canton": "VD",
    "lat": 46.6001762,
    "lon": 6.375822
  },
  "Morges": {
    "name": "Morges",
    "zip": "1110",
    "canton": "VD",
    "lat": 46.5117,
    "lon": 6.4997
  },
  "Morlon": {
    "name": "Morlon",
    "zip": "1638",
    "canton": "FR",
    "lat": 46.6258516,
    "lon": 7.0853862
  },
  "Morrens (VD)": {
    "name": "Morrens (VD)",
    "zip": "1054",
    "canton": "VD",
    "lat": 46.5904805,
    "lon": 6.6267885
  },
  "Moudon": {
    "name": "Moudon",
    "zip": "1510",
    "canton": "VD",
    "lat": 46.6680664,
    "lon": 6.8003478
  },
  "Movelier": {
    "name": "Movelier",
    "zip": "2812",
    "canton": "JU",
    "lat": 47.4093561,
    "lon": 7.3180391
  },
  "Muntelier": {
    "name": "Muntelier",
    "zip": "3286",
    "canton": "FR",
    "lat": 46.9386253,
    "lon": 7.1305874
  },
  "Muriaux": {
    "name": "Muriaux",
    "zip": "2338",
    "canton": "JU",
    "lat": 47.246007,
    "lon": 6.9794762
  },
  "Murten": {
    "name": "Murten",
    "zip": "3280",
    "canton": "FR",
    "lat": 46.9288643,
    "lon": 7.1163909
  },
  "Mutrux": {
    "name": "Mutrux",
    "zip": "1428",
    "canton": "VD",
    "lat": 46.8825207,
    "lon": 6.7261849
  },
  "Ménières": {
    "name": "Ménières",
    "zip": "1533",
    "canton": "FR",
    "lat": 46.7830908,
    "lon": 6.8808343
  },
  "Mézières (FR)": {
    "name": "Mézières (FR)",
    "zip": "1684",
    "canton": "FR",
    "lat": 46.678377,
    "lon": 6.9264097
  },
  "Mörel-Filet": {
    "name": "Mörel-Filet",
    "zip": "3983",
    "canton": "VS",
    "lat": 46.3494652,
    "lon": 8.049276
  },
  "Naters": {
    "name": "Naters",
    "zip": "3904",
    "canton": "VS",
    "lat": 46.3242659,
    "lon": 7.9884511
  },
  "Nebikon": {
    "name": "Nebikon",
    "zip": "6244",
    "canton": "LU",
    "lat": 47.18965,
    "lon": 7.973802
  },
  "Nendaz": {
    "name": "Nendaz",
    "zip": "1997",
    "canton": "VS",
    "lat": 46.1867083,
    "lon": 7.3051008
  },
  "Neuchâtel": {
    "name": "Neuchâtel",
    "zip": "2000",
    "canton": "NE",
    "lat": 46.9926,
    "lon": 6.9305
  },
  "Neuenkirch": {
    "name": "Neuenkirch",
    "zip": "6206",
    "canton": "LU",
    "lat": 47.1002397,
    "lon": 8.2029897
  },
  "Neyruz (FR)": {
    "name": "Neyruz (FR)",
    "zip": "1740",
    "canton": "FR",
    "lat": 46.7651393,
    "lon": 7.0647696
  },
  "Niedergesteln": {
    "name": "Niedergesteln",
    "zip": "3942",
    "canton": "VS",
    "lat": 46.3133927,
    "lon": 7.7818042
  },
  "Noble-Contrée": {
    "name": "Noble-Contrée",
    "zip": "3979",
    "canton": "VS",
    "lat": 46.3031568,
    "lon": 7.5366727
  },
  "Nottwil": {
    "name": "Nottwil",
    "zip": "6207",
    "canton": "LU",
    "lat": 47.1378546,
    "lon": 8.1318599
  },
  "Novalles": {
    "name": "Novalles",
    "zip": "1431",
    "canton": "VD",
    "lat": 46.8284542,
    "lon": 6.5956886
  },
  "Noville": {
    "name": "Noville",
    "zip": "1845",
    "canton": "VD",
    "lat": 46.3817112,
    "lon": 6.8996176
  },
  "Nuvilly": {
    "name": "Nuvilly",
    "zip": "1485",
    "canton": "FR",
    "lat": 46.7830428,
    "lon": 6.830987
  },
  "Nyon": {
    "name": "Nyon",
    "zip": "1260",
    "canton": "VD",
    "lat": 46.3831,
    "lon": 6.2389
  },
  "Oberems": {
    "name": "Oberems",
    "zip": "3948",
    "canton": "VS",
    "lat": 46.2816939,
    "lon": 7.6957835
  },
  "Obergoms": {
    "name": "Obergoms",
    "zip": "3988",
    "canton": "VS",
    "lat": 46.5388107,
    "lon": 8.3632322
  },
  "Oberkirch": {
    "name": "Oberkirch",
    "zip": "6208",
    "canton": "LU",
    "lat": 47.1556654,
    "lon": 8.1151451
  },
  "Ogens": {
    "name": "Ogens",
    "zip": "1045",
    "canton": "VD",
    "lat": 46.7111659,
    "lon": 6.7227737
  },
  "Ollon": {
    "name": "Ollon",
    "zip": "1867",
    "canton": "VD",
    "lat": 46.2972426,
    "lon": 6.9950257
  },
  "Onex": {
    "name": "Onex",
    "zip": "1213",
    "canton": "GE",
    "lat": 46.1837841,
    "lon": 6.1007481
  },
  "Onnens (VD)": {
    "name": "Onnens (VD)",
    "zip": "1425",
    "canton": "VD",
    "lat": 46.8391148,
    "lon": 6.6884927
  },
  "Oppens": {
    "name": "Oppens",
    "zip": "1047",
    "canton": "VD",
    "lat": 46.714312,
    "lon": 6.6923429
  },
  "Orbe": {
    "name": "Orbe",
    "zip": "1350",
    "canton": "VD",
    "lat": 46.724144,
    "lon": 6.5317943
  },
  "Orges": {
    "name": "Orges",
    "zip": "1430",
    "canton": "VD",
    "lat": 46.8082337,
    "lon": 6.5875293
  },
  "Ormont-Dessous": {
    "name": "Ormont-Dessous",
    "zip": "1862",
    "canton": "VD",
    "lat": 46.3744115,
    "lon": 7.0729789
  },
  "Ormont-Dessus": {
    "name": "Ormont-Dessus",
    "zip": "1865",
    "canton": "VD",
    "lat": 46.3425781,
    "lon": 7.1630703
  },
  "Orny": {
    "name": "Orny",
    "zip": "1317",
    "canton": "VD",
    "lat": 46.6676263,
    "lon": 6.5256309
  },
  "Oron": {
    "name": "Oron",
    "zip": "1610",
    "canton": "VD",
    "lat": 46.5558352,
    "lon": 6.8273628
  },
  "Orsières": {
    "name": "Orsières",
    "zip": "1937",
    "canton": "VS",
    "lat": 46.0300676,
    "lon": 7.1453627
  },
  "Orzens": {
    "name": "Orzens",
    "zip": "1413",
    "canton": "VD",
    "lat": 46.7239217,
    "lon": 6.6830459
  },
  "Oulens-sous-Echallens": {
    "name": "Oulens-sous-Echallens",
    "zip": "1377",
    "canton": "VD",
    "lat": 46.6433334,
    "lon": 6.5781518
  },
  "Pailly": {
    "name": "Pailly",
    "zip": "1416",
    "canton": "VD",
    "lat": 46.7013191,
    "lon": 6.6745
  },
  "Paudex": {
    "name": "Paudex",
    "zip": "1094",
    "canton": "VD",
    "lat": 46.5056892,
    "lon": 6.6732336
  },
  "Payerne": {
    "name": "Payerne",
    "zip": "1530",
    "canton": "VD",
    "lat": 46.8215,
    "lon": 6.9377
  },
  "Penthalaz": {
    "name": "Penthalaz",
    "zip": "1305",
    "canton": "VD",
    "lat": 46.6113262,
    "lon": 6.5252453
  },
  "Penthaz": {
    "name": "Penthaz",
    "zip": "1303",
    "canton": "VD",
    "lat": 46.597822,
    "lon": 6.540398
  },
  "Penthéréaz": {
    "name": "Penthéréaz",
    "zip": "1375",
    "canton": "VD",
    "lat": 46.6818849,
    "lon": 6.6035686
  },
  "Perly-Certoux": {
    "name": "Perly-Certoux",
    "zip": "1258",
    "canton": "GE",
    "lat": 46.1573225,
    "lon": 6.0917899
  },
  "Perroy": {
    "name": "Perroy",
    "zip": "1166",
    "canton": "VD",
    "lat": 46.4681469,
    "lon": 6.3642905
  },
  "Pfaffnau": {
    "name": "Pfaffnau",
    "zip": "6264",
    "canton": "LU",
    "lat": 47.2273716,
    "lon": 7.8984229
  },
  "Pierrafortscha": {
    "name": "Pierrafortscha",
    "zip": "1723",
    "canton": "FR",
    "lat": 46.7869341,
    "lon": 7.1855097
  },
  "Plaffeien": {
    "name": "Plaffeien",
    "zip": "1716",
    "canton": "FR",
    "lat": 46.741454,
    "lon": 7.2865098
  },
  "Plan-les-Ouates": {
    "name": "Plan-les-Ouates",
    "zip": "1228",
    "canton": "GE",
    "lat": 46.1683113,
    "lon": 6.117887
  },
  "Plasselb": {
    "name": "Plasselb",
    "zip": "1737",
    "canton": "FR",
    "lat": 46.7354779,
    "lon": 7.2516771
  },
  "Pleigne": {
    "name": "Pleigne",
    "zip": "2807",
    "canton": "JU",
    "lat": 47.4074958,
    "lon": 7.292424
  },
  "Poliez-Pittet": {
    "name": "Poliez-Pittet",
    "zip": "1041",
    "canton": "VD",
    "lat": 46.6277599,
    "lon": 6.6826495
  },
  "Pompaples": {
    "name": "Pompaples",
    "zip": "1318",
    "canton": "VD",
    "lat": 46.6666443,
    "lon": 6.5106833
  },
  "Pomy": {
    "name": "Pomy",
    "zip": "1405",
    "canton": "VD",
    "lat": 46.7609575,
    "lon": 6.6663747
  },
  "Pont-en-Ogoz": {
    "name": "Pont-en-Ogoz",
    "zip": "1690",
    "canton": "FR",
    "lat": 46.6881639,
    "lon": 7.0767346
  },
  "Pont-la-Ville": {
    "name": "Pont-la-Ville",
    "zip": "1649",
    "canton": "FR",
    "lat": 46.6990292,
    "lon": 7.1110228
  },
  "Porrentruy": {
    "name": "Porrentruy",
    "zip": "2900",
    "canton": "JU",
    "lat": 47.4157,
    "lon": 7.0754
  },
  "Port-Valais": {
    "name": "Port-Valais",
    "zip": "1897",
    "canton": "VS",
    "lat": 46.3735887,
    "lon": 6.8624056
  },
  "Prangins": {
    "name": "Prangins",
    "zip": "1197",
    "canton": "VD",
    "lat": 46.3947976,
    "lon": 6.2487871
  },
  "Pregny-Chambésy": {
    "name": "Pregny-Chambésy",
    "zip": "1292",
    "canton": "GE",
    "lat": 46.2434402,
    "lon": 6.1465109
  },
  "Premier": {
    "name": "Premier",
    "zip": "1324",
    "canton": "VD",
    "lat": 46.7047978,
    "lon": 6.444282
  },
  "Presinge": {
    "name": "Presinge",
    "zip": "1243",
    "canton": "GE",
    "lat": 46.2191549,
    "lon": 6.25636
  },
  "Prez": {
    "name": "Prez",
    "zip": "1746",
    "canton": "FR",
    "lat": 46.786265,
    "lon": 7.0145713
  },
  "Prilly": {
    "name": "Prilly",
    "zip": "1008",
    "canton": "VD",
    "lat": 46.534566,
    "lon": 6.6055827
  },
  "Provence": {
    "name": "Provence",
    "zip": "1428",
    "canton": "VD",
    "lat": 46.8914636,
    "lon": 6.7270271
  },
  "Préverenges": {
    "name": "Préverenges",
    "zip": "1028",
    "canton": "VD",
    "lat": 46.5183844,
    "lon": 6.5267369
  },
  "Prévondavaux": {
    "name": "Prévondavaux",
    "zip": "1410",
    "canton": "FR",
    "lat": 46.7277349,
    "lon": 6.7935514
  },
  "Prévonloup": {
    "name": "Prévonloup",
    "zip": "1682",
    "canton": "VD",
    "lat": 46.699867,
    "lon": 6.8820157
  },
  "Puidoux": {
    "name": "Puidoux",
    "zip": "1070",
    "canton": "VD",
    "lat": 46.5008111,
    "lon": 6.7823914
  },
  "Pully": {
    "name": "Pully",
    "zip": "1009",
    "canton": "VD",
    "lat": 46.5098019,
    "lon": 6.6617476
  },
  "Puplinge": {
    "name": "Puplinge",
    "zip": "1241",
    "canton": "GE",
    "lat": 46.2106389,
    "lon": 6.231707
  },
  "Rain": {
    "name": "Rain",
    "zip": "6026",
    "canton": "LU",
    "lat": 47.1292173,
    "lon": 8.2564524
  },
  "Rances": {
    "name": "Rances",
    "zip": "1439",
    "canton": "VD",
    "lat": 46.7602787,
    "lon": 6.5300272
  },
  "Randa": {
    "name": "Randa",
    "zip": "3928",
    "canton": "VS",
    "lat": 46.1002792,
    "lon": 7.782412
  },
  "Raron": {
    "name": "Raron",
    "zip": "3942",
    "canton": "VS",
    "lat": 46.309934,
    "lon": 7.799589
  },
  "Rechthalten": {
    "name": "Rechthalten",
    "zip": "1718",
    "canton": "FR",
    "lat": 46.7675326,
    "lon": 7.2400909
  },
  "Reiden": {
    "name": "Reiden",
    "zip": "6260",
    "canton": "LU",
    "lat": 47.2460194,
    "lon": 7.9730383
  },
  "Remaufens": {
    "name": "Remaufens",
    "zip": "1617",
    "canton": "FR",
    "lat": 46.5276138,
    "lon": 6.8796623
  },
  "Renens (VD)": {
    "name": "Renens (VD)",
    "zip": "1020",
    "canton": "VD",
    "lat": 46.5349093,
    "lon": 6.5928442
  },
  "Rennaz": {
    "name": "Rennaz",
    "zip": "1847",
    "canton": "VD",
    "lat": 46.3757048,
    "lon": 6.9190655
  },
  "Riaz": {
    "name": "Riaz",
    "zip": "1632",
    "canton": "FR",
    "lat": 46.640249,
    "lon": 7.0616291
  },
  "Rickenbach (LU)": {
    "name": "Rickenbach (LU)",
    "zip": "6221",
    "canton": "LU",
    "lat": 47.221267,
    "lon": 8.1535369
  },
  "Riddes": {
    "name": "Riddes",
    "zip": "1908",
    "canton": "VS",
    "lat": 46.1718974,
    "lon": 7.2227718
  },
  "Ried bei Kerzers": {
    "name": "Ried bei Kerzers",
    "zip": "3216",
    "canton": "FR",
    "lat": 46.9555986,
    "lon": 7.1855758
  },
  "Ried-Brig": {
    "name": "Ried-Brig",
    "zip": "3911",
    "canton": "VS",
    "lat": 46.3150269,
    "lon": 8.0166829
  },
  "Riederalp": {
    "name": "Riederalp",
    "zip": "3987",
    "canton": "VS",
    "lat": 46.3782021,
    "lon": 8.0334815
  },
  "Rivaz": {
    "name": "Rivaz",
    "zip": "1071",
    "canton": "VD",
    "lat": 46.4762772,
    "lon": 6.7786403
  },
  "Roche (VD)": {
    "name": "Roche (VD)",
    "zip": "1852",
    "canton": "VD",
    "lat": 46.3610602,
    "lon": 6.9309298
  },
  "Rochefort": {
    "name": "Rochefort",
    "zip": "2019",
    "canton": "NE",
    "lat": 46.988115,
    "lon": 6.8060964
  },
  "Roggliswil": {
    "name": "Roggliswil",
    "zip": "6265",
    "canton": "LU",
    "lat": 47.2111654,
    "lon": 7.8827159
  },
  "Rolle": {
    "name": "Rolle",
    "zip": "1180",
    "canton": "VD",
    "lat": 46.4601563,
    "lon": 6.3380469
  },
  "Romainmôtier-Envy": {
    "name": "Romainmôtier-Envy",
    "zip": "1323",
    "canton": "VD",
    "lat": 46.6906658,
    "lon": 6.4587347
  },
  "Romanel-sur-Lausanne": {
    "name": "Romanel-sur-Lausanne",
    "zip": "1032",
    "canton": "VD",
    "lat": 46.5621173,
    "lon": 6.6055577
  },
  "Romanel-sur-Morges": {
    "name": "Romanel-sur-Morges",
    "zip": "1122",
    "canton": "VD",
    "lat": 46.5564288,
    "lon": 6.5101067
  },
  "Romont (FR)": {
    "name": "Romont (FR)",
    "zip": "1680",
    "canton": "FR",
    "lat": 46.6937738,
    "lon": 6.9120487
  },
  "Romoos": {
    "name": "Romoos",
    "zip": "6113",
    "canton": "LU",
    "lat": 47.0115225,
    "lon": 8.0282996
  },
  "Root": {
    "name": "Root",
    "zip": "6037",
    "canton": "LU",
    "lat": 47.1153443,
    "lon": 8.3911091
  },
  "Ropraz": {
    "name": "Ropraz",
    "zip": "1088",
    "canton": "VD",
    "lat": 46.6153223,
    "lon": 6.7515592
  },
  "Rossemaison": {
    "name": "Rossemaison",
    "zip": "2842",
    "canton": "JU",
    "lat": 47.3457776,
    "lon": 7.3431762
  },
  "Rossenges": {
    "name": "Rossenges",
    "zip": "1513",
    "canton": "VD",
    "lat": 46.6520362,
    "lon": 6.7765557
  },
  "Rossinière": {
    "name": "Rossinière",
    "zip": "1658",
    "canton": "VD",
    "lat": 46.4675176,
    "lon": 7.083061
  },
  "Rothenburg": {
    "name": "Rothenburg",
    "zip": "6023",
    "canton": "LU",
    "lat": 47.0940041,
    "lon": 8.2724174
  },
  "Rougemont": {
    "name": "Rougemont",
    "zip": "1659",
    "canton": "VD",
    "lat": 46.4899991,
    "lon": 7.2106992
  },
  "Rovray": {
    "name": "Rovray",
    "zip": "1463",
    "canton": "VD",
    "lat": 46.784944,
    "lon": 6.7644164
  },
  "Rue": {
    "name": "Rue",
    "zip": "1673",
    "canton": "FR",
    "lat": 46.6198391,
    "lon": 6.8215209
  },
  "Rueyres": {
    "name": "Rueyres",
    "zip": "1046",
    "canton": "VD",
    "lat": 46.6937921,
    "lon": 6.6926541
  },
  "Russin": {
    "name": "Russin",
    "zip": "1281",
    "canton": "GE",
    "lat": 46.1876287,
    "lon": 6.0130297
  },
  "Ruswil": {
    "name": "Ruswil",
    "zip": "6017",
    "canton": "LU",
    "lat": 47.0839416,
    "lon": 8.126227
  },
  "Römerswil": {
    "name": "Römerswil",
    "zip": "6027",
    "canton": "LU",
    "lat": 47.168923,
    "lon": 8.2441972
  },
  "Saas-Almagell": {
    "name": "Saas-Almagell",
    "zip": "3905",
    "canton": "VS",
    "lat": 46.0938913,
    "lon": 7.9582333
  },
  "Saas-Balen": {
    "name": "Saas-Balen",
    "zip": "3908",
    "canton": "VS",
    "lat": 46.1540205,
    "lon": 7.9281921
  },
  "Saas-Fee": {
    "name": "Saas-Fee",
    "zip": "3906",
    "canton": "VS",
    "lat": 46.107342,
    "lon": 7.9247055
  },
  "Saas-Grund": {
    "name": "Saas-Grund",
    "zip": "3910",
    "canton": "VS",
    "lat": 46.1278436,
    "lon": 7.9370051
  },
  "Saignelégier": {
    "name": "Saignelégier",
    "zip": "2350",
    "canton": "JU",
    "lat": 47.2557997,
    "lon": 6.9963585
  },
  "Saillon": {
    "name": "Saillon",
    "zip": "1913",
    "canton": "VS",
    "lat": 46.1715641,
    "lon": 7.1849043
  },
  "Saint-Aubin (FR)": {
    "name": "Saint-Aubin (FR)",
    "zip": "1566",
    "canton": "FR",
    "lat": 46.8900349,
    "lon": 6.9802104
  },
  "Saint-Barthélemy (VD)": {
    "name": "Saint-Barthélemy (VD)",
    "zip": "1040",
    "canton": "VD",
    "lat": 46.6355663,
    "lon": 6.6001447
  },
  "Saint-Brais": {
    "name": "Saint-Brais",
    "zip": "2364",
    "canton": "JU",
    "lat": 47.3053022,
    "lon": 7.1125855
  },
  "Saint-Cergue": {
    "name": "Saint-Cergue",
    "zip": "1264",
    "canton": "VD",
    "lat": 46.4460968,
    "lon": 6.158111
  },
  "Saint-George": {
    "name": "Saint-George",
    "zip": "1188",
    "canton": "VD",
    "lat": 46.5138321,
    "lon": 6.2602719
  },
  "Saint-Gingolph": {
    "name": "Saint-Gingolph",
    "zip": "1898",
    "canton": "VS",
    "lat": 46.3870409,
    "lon": 6.8250394
  },
  "Saint-Livres": {
    "name": "Saint-Livres",
    "zip": "1176",
    "canton": "VD",
    "lat": 46.5089259,
    "lon": 6.3865062
  },
  "Saint-Léonard": {
    "name": "Saint-Léonard",
    "zip": "1958",
    "canton": "VS",
    "lat": 46.2546777,
    "lon": 7.420378
  },
  "Saint-Martin (FR)": {
    "name": "Saint-Martin (FR)",
    "zip": "1609",
    "canton": "FR",
    "lat": 46.5763293,
    "lon": 6.8691224
  },
  "Saint-Martin (VS)": {
    "name": "Saint-Martin (VS)",
    "zip": "1969",
    "canton": "VS",
    "lat": 46.1535469,
    "lon": 7.4688063
  },
  "Saint-Maurice": {
    "name": "Saint-Maurice",
    "zip": "1890",
    "canton": "VS",
    "lat": 46.2197694,
    "lon": 7.0045193
  },
  "Saint-Oyens": {
    "name": "Saint-Oyens",
    "zip": "1187",
    "canton": "VD",
    "lat": 46.4980293,
    "lon": 6.3063994
  },
  "Saint-Prex": {
    "name": "Saint-Prex",
    "zip": "1162",
    "canton": "VD",
    "lat": 46.4809059,
    "lon": 6.4586004
  },
  "Saint-Saphorin (Lavaux)": {
    "name": "Saint-Saphorin (Lavaux)",
    "zip": "1071",
    "canton": "VD",
    "lat": 46.4731819,
    "lon": 6.7959554
  },
  "Saint-Sulpice (VD)": {
    "name": "Saint-Sulpice (VD)",
    "zip": "1025",
    "canton": "VD",
    "lat": 46.5100832,
    "lon": 6.5580607
  },
  "Sainte-Croix": {
    "name": "Sainte-Croix",
    "zip": "1450",
    "canton": "VD",
    "lat": 46.822522,
    "lon": 6.5009286
  },
  "Salgesch": {
    "name": "Salgesch",
    "zip": "3970",
    "canton": "VS",
    "lat": 46.3116136,
    "lon": 7.5699409
  },
  "Salvan": {
    "name": "Salvan",
    "zip": "1922",
    "canton": "VS",
    "lat": 46.1219825,
    "lon": 7.0208326
  },
  "Satigny": {
    "name": "Satigny",
    "zip": "1242",
    "canton": "GE",
    "lat": 46.2157703,
    "lon": 6.0330885
  },
  "Saubraz": {
    "name": "Saubraz",
    "zip": "1189",
    "canton": "VD",
    "lat": 46.5145609,
    "lon": 6.3302084
  },
  "Saulcy": {
    "name": "Saulcy",
    "zip": "2873",
    "canton": "JU",
    "lat": 47.3016132,
    "lon": 7.1540249
  },
  "Savigny": {
    "name": "Savigny",
    "zip": "1073",
    "canton": "VD",
    "lat": 46.5384249,
    "lon": 6.7316194
  },
  "Savièse": {
    "name": "Savièse",
    "zip": "1965",
    "canton": "VS",
    "lat": 46.2535351,
    "lon": 7.3477598
  },
  "Saxon": {
    "name": "Saxon",
    "zip": "1907",
    "canton": "VS",
    "lat": 46.1452873,
    "lon": 7.1807405
  },
  "Schenkon": {
    "name": "Schenkon",
    "zip": "6214",
    "canton": "LU",
    "lat": 47.1774719,
    "lon": 8.132378
  },
  "Schlierbach": {
    "name": "Schlierbach",
    "zip": "6231",
    "canton": "LU",
    "lat": 47.2241354,
    "lon": 8.1109581
  },
  "Schmitten (FR)": {
    "name": "Schmitten (FR)",
    "zip": "3185",
    "canton": "FR",
    "lat": 46.8560556,
    "lon": 7.2474014
  },
  "Schongau": {
    "name": "Schongau",
    "zip": "6288",
    "canton": "LU",
    "lat": 47.2677484,
    "lon": 8.2661717
  },
  "Schwarzenberg": {
    "name": "Schwarzenberg",
    "zip": "6103",
    "canton": "LU",
    "lat": 47.0145937,
    "lon": 8.1734674
  },
  "Schötz": {
    "name": "Schötz",
    "zip": "6247",
    "canton": "LU",
    "lat": 47.1698443,
    "lon": 7.9884821
  },
  "Schüpfheim": {
    "name": "Schüpfheim",
    "zip": "6170",
    "canton": "LU",
    "lat": 46.9517174,
    "lon": 8.017953
  },
  "Sembrancher": {
    "name": "Sembrancher",
    "zip": "1933",
    "canton": "VS",
    "lat": 46.0784832,
    "lon": 7.1517153
  },
  "Sempach": {
    "name": "Sempach",
    "zip": "6204",
    "canton": "LU",
    "lat": 47.1353737,
    "lon": 8.1920262
  },
  "Semsales": {
    "name": "Semsales",
    "zip": "1623",
    "canton": "FR",
    "lat": 46.5740332,
    "lon": 6.9291121
  },
  "Senarclens": {
    "name": "Senarclens",
    "zip": "1304",
    "canton": "VD",
    "lat": 46.6004691,
    "lon": 6.4868169
  },
  "Sergey": {
    "name": "Sergey",
    "zip": "1355",
    "canton": "VD",
    "lat": 46.7505419,
    "lon": 6.4995735
  },
  "Servion": {
    "name": "Servion",
    "zip": "1077",
    "canton": "VD",
    "lat": 46.5767948,
    "lon": 6.7845039
  },
  "Sierre": {
    "name": "Sierre",
    "zip": "3960",
    "canton": "VS",
    "lat": 46.2919,
    "lon": 7.5351
  },
  "Signy-Avenex": {
    "name": "Signy-Avenex",
    "zip": "1274",
    "canton": "VD",
    "lat": 46.3907229,
    "lon": 6.2018023
  },
  "Simplon": {
    "name": "Simplon",
    "zip": "3907",
    "canton": "VS",
    "lat": 46.1955875,
    "lon": 8.0563136
  },
  "Sion": {
    "name": "Sion",
    "zip": "1950",
    "canton": "VS",
    "lat": 46.2332,
    "lon": 7.3578
  },
  "Siviriez": {
    "name": "Siviriez",
    "zip": "1678",
    "canton": "FR",
    "lat": 46.6576782,
    "lon": 6.8769946
  },
  "Soral": {
    "name": "Soral",
    "zip": "1286",
    "canton": "GE",
    "lat": 46.1443887,
    "lon": 6.0437516
  },
  "Sorens": {
    "name": "Sorens",
    "zip": "1642",
    "canton": "FR",
    "lat": 46.6701619,
    "lon": 7.0612165
  },
  "Soubey": {
    "name": "Soubey",
    "zip": "2887",
    "canton": "JU",
    "lat": 47.3082434,
    "lon": 7.0486468
  },
  "Soyhières": {
    "name": "Soyhières",
    "zip": "2805",
    "canton": "JU",
    "lat": 47.390073,
    "lon": 7.3696855
  },
  "St. Niklaus": {
    "name": "St. Niklaus",
    "zip": "3924",
    "canton": "VS",
    "lat": 46.177002,
    "lon": 7.802516
  },
  "St. Silvester": {
    "name": "St. Silvester",
    "zip": "1736",
    "canton": "FR",
    "lat": 46.7410614,
    "lon": 7.2193275
  },
  "St. Ursen": {
    "name": "St. Ursen",
    "zip": "1717",
    "canton": "FR",
    "lat": 46.7899498,
    "lon": 7.2183078
  },
  "Stalden (VS)": {
    "name": "Stalden (VS)",
    "zip": "3922",
    "canton": "VS",
    "lat": 46.2325963,
    "lon": 7.8704203
  },
  "Staldenried": {
    "name": "Staldenried",
    "zip": "3933",
    "canton": "VS",
    "lat": 46.2296157,
    "lon": 7.8833886
  },
  "Steg-Hohtenn": {
    "name": "Steg-Hohtenn",
    "zip": "3940",
    "canton": "VS",
    "lat": 46.3347806,
    "lon": 7.7681078
  },
  "Suchy": {
    "name": "Suchy",
    "zip": "1433",
    "canton": "VD",
    "lat": 46.7232325,
    "lon": 6.5994077
  },
  "Sullens": {
    "name": "Sullens",
    "zip": "1036",
    "canton": "VD",
    "lat": 46.5931372,
    "lon": 6.5661454
  },
  "Surpierre": {
    "name": "Surpierre",
    "zip": "1528",
    "canton": "FR",
    "lat": 46.7445749,
    "lon": 6.8607883
  },
  "Sursee": {
    "name": "Sursee",
    "zip": "6210",
    "canton": "LU",
    "lat": 47.1725301,
    "lon": 8.1067781
  },
  "Suscévaz": {
    "name": "Suscévaz",
    "zip": "1433",
    "canton": "VD",
    "lat": 46.7642362,
    "lon": 6.5780348
  },
  "Syens": {
    "name": "Syens",
    "zip": "1510",
    "canton": "VD",
    "lat": 46.6456578,
    "lon": 6.7782652
  },
  "Sâles": {
    "name": "Sâles",
    "zip": "1625",
    "canton": "FR",
    "lat": 46.6366262,
    "lon": 6.9743823
  },
  "Sévaz": {
    "name": "Sévaz",
    "zip": "1541",
    "canton": "FR",
    "lat": 46.8382703,
    "lon": 6.8746273
  },
  "Tafers": {
    "name": "Tafers",
    "zip": "1712",
    "canton": "FR",
    "lat": 46.8152805,
    "lon": 7.2167886
  },
  "Tannay": {
    "name": "Tannay",
    "zip": "1295",
    "canton": "VD",
    "lat": 46.3089604,
    "lon": 6.1757001
  },
  "Tartegnin": {
    "name": "Tartegnin",
    "zip": "1180",
    "canton": "VD",
    "lat": 46.4666552,
    "lon": 6.3156804
  },
  "Tentlingen": {
    "name": "Tentlingen",
    "zip": "1734",
    "canton": "FR",
    "lat": 46.769765,
    "lon": 7.1983411
  },
  "Termen": {
    "name": "Termen",
    "zip": "3912",
    "canton": "VS",
    "lat": 46.3283973,
    "lon": 8.0227013
  },
  "Thônex": {
    "name": "Thônex",
    "zip": "1226",
    "canton": "GE",
    "lat": 46.1884304,
    "lon": 6.1983858
  },
  "Tolochenaz": {
    "name": "Tolochenaz",
    "zip": "1131",
    "canton": "VD",
    "lat": 46.5047001,
    "lon": 6.4734539
  },
  "Torny": {
    "name": "Torny",
    "zip": "1748",
    "canton": "FR",
    "lat": 46.770835,
    "lon": 6.9653043
  },
  "Trey": {
    "name": "Trey",
    "zip": "1552",
    "canton": "VD",
    "lat": 46.769255,
    "lon": 6.9251725
  },
  "Treycovagnes": {
    "name": "Treycovagnes",
    "zip": "1436",
    "canton": "VD",
    "lat": 46.7738784,
    "lon": 6.6092758
  },
  "Treytorrens (Payerne)": {
    "name": "Treytorrens (Payerne)",
    "zip": "1538",
    "canton": "VD",
    "lat": 46.7731198,
    "lon": 6.8003881
  },
  "Treyvaux": {
    "name": "Treyvaux",
    "zip": "1733",
    "canton": "FR",
    "lat": 46.7274425,
    "lon": 7.1364409
  },
  "Triengen": {
    "name": "Triengen",
    "zip": "6234",
    "canton": "LU",
    "lat": 47.2351967,
    "lon": 8.0767478
  },
  "Trient": {
    "name": "Trient",
    "zip": "1929",
    "canton": "VS",
    "lat": 46.0559487,
    "lon": 6.9953742
  },
  "Troinex": {
    "name": "Troinex",
    "zip": "1256",
    "canton": "GE",
    "lat": 46.1616537,
    "lon": 6.147819
  },
  "Troistorrents": {
    "name": "Troistorrents",
    "zip": "1872",
    "canton": "VS",
    "lat": 46.2285806,
    "lon": 6.9161978
  },
  "Trélex": {
    "name": "Trélex",
    "zip": "1270",
    "canton": "VD",
    "lat": 46.414967,
    "lon": 6.2048987
  },
  "Turtmann-Unterems": {
    "name": "Turtmann-Unterems",
    "zip": "3946",
    "canton": "VS",
    "lat": 46.1619827,
    "lon": 7.7140416
  },
  "Täsch": {
    "name": "Täsch",
    "zip": "3929",
    "canton": "VS",
    "lat": 46.0676751,
    "lon": 7.7770173
  },
  "Tévenon": {
    "name": "Tévenon",
    "zip": "1423",
    "canton": "VD",
    "lat": 46.8648032,
    "lon": 6.6382256
  },
  "Törbel": {
    "name": "Törbel",
    "zip": "3923",
    "canton": "VS",
    "lat": 46.2385196,
    "lon": 7.851508
  },
  "Udligenswil": {
    "name": "Udligenswil",
    "zip": "6044",
    "canton": "LU",
    "lat": 47.091036,
    "lon": 8.399689
  },
  "Ueberstorf": {
    "name": "Ueberstorf",
    "zip": "3182",
    "canton": "FR",
    "lat": 46.8650568,
    "lon": 7.3114056
  },
  "Ufhusen": {
    "name": "Ufhusen",
    "zip": "6153",
    "canton": "LU",
    "lat": 47.1166353,
    "lon": 7.8955614
  },
  "Ulmiz": {
    "name": "Ulmiz",
    "zip": "3214",
    "canton": "FR",
    "lat": 46.9321113,
    "lon": 7.2006542
  },
  "Unterbäch": {
    "name": "Unterbäch",
    "zip": "3944",
    "canton": "VS",
    "lat": 46.2609289,
    "lon": 7.7798653
  },
  "Ursins": {
    "name": "Ursins",
    "zip": "1412",
    "canton": "VD",
    "lat": 46.734894,
    "lon": 6.668296
  },
  "Ursy": {
    "name": "Ursy",
    "zip": "1670",
    "canton": "FR",
    "lat": 46.6350125,
    "lon": 6.8359644
  },
  "Val Terbi": {
    "name": "Val Terbi",
    "zip": "2824",
    "canton": "JU",
    "lat": 47.341103,
    "lon": 7.4206266
  },
  "Val de Bagnes": {
    "name": "Val de Bagnes",
    "zip": "1934",
    "canton": "VS",
    "lat": 46.0099809,
    "lon": 7.3070055
  },
  "Val-d'Illiez": {
    "name": "Val-d'Illiez",
    "zip": "1873",
    "canton": "VS",
    "lat": 46.204027,
    "lon": 6.8927881
  },
  "Val-de-Charmey": {
    "name": "Val-de-Charmey",
    "zip": "1637",
    "canton": "FR",
    "lat": 46.6183939,
    "lon": 7.1978371
  },
  "Val-de-Ruz": {
    "name": "Val-de-Ruz",
    "zip": "2052",
    "canton": "NE",
    "lat": 47.0567795,
    "lon": 6.9099064
  },
  "Val-de-Travers": {
    "name": "Val-de-Travers",
    "zip": "2114",
    "canton": "NE",
    "lat": 46.9188206,
    "lon": 6.5826276
  },
  "Valbroye": {
    "name": "Valbroye",
    "zip": "1536",
    "canton": "VD",
    "lat": 46.724722,
    "lon": 6.8919595
  },
  "Valeyres-sous-Montagny": {
    "name": "Valeyres-sous-Montagny",
    "zip": "1441",
    "canton": "VD",
    "lat": 46.7983693,
    "lon": 6.6105655
  },
  "Valeyres-sous-Rances": {
    "name": "Valeyres-sous-Rances",
    "zip": "1358",
    "canton": "VD",
    "lat": 46.7528278,
    "lon": 6.5249548
  },
  "Valeyres-sous-Ursins": {
    "name": "Valeyres-sous-Ursins",
    "zip": "1412",
    "canton": "VD",
    "lat": 46.7458204,
    "lon": 6.655254
  },
  "Vallon": {
    "name": "Vallon",
    "zip": "1565",
    "canton": "FR",
    "lat": 46.882477,
    "lon": 6.951657
  },
  "Vallorbe": {
    "name": "Vallorbe",
    "zip": "1337",
    "canton": "VD",
    "lat": 46.7120146,
    "lon": 6.3792318
  },
  "Vandoeuvres": {
    "name": "Vandoeuvres",
    "zip": "1253",
    "canton": "GE",
    "lat": 46.2214083,
    "lon": 6.2024623
  },
  "Varen": {
    "name": "Varen",
    "zip": "3953",
    "canton": "VS",
    "lat": 46.3186626,
    "lon": 7.6078029
  },
  "Vaulion": {
    "name": "Vaulion",
    "zip": "1325",
    "canton": "VD",
    "lat": 46.6883547,
    "lon": 6.3894066
  },
  "Vaulruz": {
    "name": "Vaulruz",
    "zip": "1627",
    "canton": "FR",
    "lat": 46.6207942,
    "lon": 6.9882518
  },
  "Vaux-sur-Morges": {
    "name": "Vaux-sur-Morges",
    "zip": "1126",
    "canton": "VD",
    "lat": 46.5353976,
    "lon": 6.463827
  },
  "Vendlincourt": {
    "name": "Vendlincourt",
    "zip": "2943",
    "canton": "JU",
    "lat": 47.4512425,
    "lon": 7.1485023
  },
  "Vernayaz": {
    "name": "Vernayaz",
    "zip": "1904",
    "canton": "VS",
    "lat": 46.1365416,
    "lon": 7.0393423
  },
  "Vernier": {
    "name": "Vernier",
    "zip": "1214",
    "canton": "GE",
    "lat": 46.2064,
    "lon": 6.0851
  },
  "Versoix": {
    "name": "Versoix",
    "zip": "1290",
    "canton": "GE",
    "lat": 46.2773064,
    "lon": 6.168962
  },
  "Vevey": {
    "name": "Vevey",
    "zip": "1800",
    "canton": "VD",
    "lat": 46.4601,
    "lon": 6.8432
  },
  "Vex": {
    "name": "Vex",
    "zip": "1981",
    "canton": "VS",
    "lat": 46.2113825,
    "lon": 7.3983622
  },
  "Veyrier": {
    "name": "Veyrier",
    "zip": "1255",
    "canton": "GE",
    "lat": 46.1668163,
    "lon": 6.185681
  },
  "Veysonnaz": {
    "name": "Veysonnaz",
    "zip": "1993",
    "canton": "VS",
    "lat": 46.1955082,
    "lon": 7.3363267
  },
  "Veytaux": {
    "name": "Veytaux",
    "zip": "1820",
    "canton": "VD",
    "lat": 46.4215725,
    "lon": 6.9275648
  },
  "Vich": {
    "name": "Vich",
    "zip": "1267",
    "canton": "VD",
    "lat": 46.4294193,
    "lon": 6.2505497
  },
  "Villars-Epeney": {
    "name": "Villars-Epeney",
    "zip": "1404",
    "canton": "VD",
    "lat": 46.7817278,
    "lon": 6.6969935
  },
  "Villars-Sainte-Croix": {
    "name": "Villars-Sainte-Croix",
    "zip": "1029",
    "canton": "VD",
    "lat": 46.5675877,
    "lon": 6.5616074
  },
  "Villars-le-Comte": {
    "name": "Villars-le-Comte",
    "zip": "1515",
    "canton": "VD",
    "lat": 46.7106452,
    "lon": 6.7990287
  },
  "Villars-le-Terroir": {
    "name": "Villars-le-Terroir",
    "zip": "1040",
    "canton": "VD",
    "lat": 46.6569364,
    "lon": 6.6387429
  },
  "Villars-sous-Yens": {
    "name": "Villars-sous-Yens",
    "zip": "1168",
    "canton": "VD",
    "lat": 46.5102444,
    "lon": 6.4286538
  },
  "Villars-sur-Glâne": {
    "name": "Villars-sur-Glâne",
    "zip": "1752",
    "canton": "FR",
    "lat": 46.791321,
    "lon": 7.1161892
  },
  "Villarsel-sur-Marly": {
    "name": "Villarsel-sur-Marly",
    "zip": "1723",
    "canton": "FR",
    "lat": 46.7627211,
    "lon": 7.1693822
  },
  "Villarzel": {
    "name": "Villarzel",
    "zip": "1555",
    "canton": "VD",
    "lat": 46.7478499,
    "lon": 6.9118617
  },
  "Villaz": {
    "name": "Villaz",
    "zip": "1690",
    "canton": "FR",
    "lat": 46.7292556,
    "lon": 6.9499797
  },
  "Villeneuve (VD)": {
    "name": "Villeneuve (VD)",
    "zip": "1844",
    "canton": "VD",
    "lat": 46.3965712,
    "lon": 6.9248129
  },
  "Villorsonnens": {
    "name": "Villorsonnens",
    "zip": "1694",
    "canton": "FR",
    "lat": 46.7073496,
    "lon": 6.9960989
  },
  "Vinzel": {
    "name": "Vinzel",
    "zip": "1184",
    "canton": "VD",
    "lat": 46.4476073,
    "lon": 6.2793859
  },
  "Vionnaz": {
    "name": "Vionnaz",
    "zip": "1895",
    "canton": "VS",
    "lat": 46.3112229,
    "lon": 6.8999588
  },
  "Visp": {
    "name": "Visp",
    "zip": "3930",
    "canton": "VS",
    "lat": 46.2913113,
    "lon": 7.8811918
  },
  "Visperterminen": {
    "name": "Visperterminen",
    "zip": "3932",
    "canton": "VS",
    "lat": 46.2589888,
    "lon": 7.9030118
  },
  "Vitznau": {
    "name": "Vitznau",
    "zip": "6354",
    "canton": "LU",
    "lat": 47.0091184,
    "lon": 8.4846569
  },
  "Vouvry": {
    "name": "Vouvry",
    "zip": "1896",
    "canton": "VS",
    "lat": 46.3372451,
    "lon": 6.8887175
  },
  "Vuadens": {
    "name": "Vuadens",
    "zip": "1628",
    "canton": "FR",
    "lat": 46.6174394,
    "lon": 7.0233135
  },
  "Vuarrens": {
    "name": "Vuarrens",
    "zip": "1418",
    "canton": "VD",
    "lat": 46.6863257,
    "lon": 6.6475677
  },
  "Vucherens": {
    "name": "Vucherens",
    "zip": "1509",
    "canton": "VD",
    "lat": 46.624684,
    "lon": 6.7769649
  },
  "Vufflens-la-Ville": {
    "name": "Vufflens-la-Ville",
    "zip": "1302",
    "canton": "VD",
    "lat": 46.5783726,
    "lon": 6.5386727
  },
  "Vufflens-le-Château": {
    "name": "Vufflens-le-Château",
    "zip": "1134",
    "canton": "VD",
    "lat": 46.5264596,
    "lon": 6.4690909
  },
  "Vugelles-La Mothe": {
    "name": "Vugelles-La Mothe",
    "zip": "1431",
    "canton": "VD",
    "lat": 46.8239401,
    "lon": 6.5757152
  },
  "Vuisternens-devant-Romont": {
    "name": "Vuisternens-devant-Romont",
    "zip": "1687",
    "canton": "FR",
    "lat": 46.653069,
    "lon": 6.92926
  },
  "Vuiteboeuf": {
    "name": "Vuiteboeuf",
    "zip": "1445",
    "canton": "VD",
    "lat": 46.807388,
    "lon": 6.5493754
  },
  "Vulliens": {
    "name": "Vulliens",
    "zip": "1085",
    "canton": "VD",
    "lat": 46.6212858,
    "lon": 6.7927903
  },
  "Vullierens": {
    "name": "Vullierens",
    "zip": "1115",
    "canton": "VD",
    "lat": 46.5730401,
    "lon": 6.4816261
  },
  "Vully-les-Lacs": {
    "name": "Vully-les-Lacs",
    "zip": "1585",
    "canton": "VD",
    "lat": 46.928004,
    "lon": 7.0149093
  },
  "Vérossaz": {
    "name": "Vérossaz",
    "zip": "1891",
    "canton": "VS",
    "lat": 46.2128879,
    "lon": 6.98412
  },
  "Vétroz": {
    "name": "Vétroz",
    "zip": "1963",
    "canton": "VS",
    "lat": 46.2253413,
    "lon": 7.2812893
  },
  "Wauwil": {
    "name": "Wauwil",
    "zip": "6242",
    "canton": "LU",
    "lat": 47.184353,
    "lon": 8.026173
  },
  "Weggis": {
    "name": "Weggis",
    "zip": "6353",
    "canton": "LU",
    "lat": 47.0322545,
    "lon": 8.4346408
  },
  "Werthenstein": {
    "name": "Werthenstein",
    "zip": "6106",
    "canton": "LU",
    "lat": 47.0553684,
    "lon": 8.1018157
  },
  "Wikon": {
    "name": "Wikon",
    "zip": "4806",
    "canton": "LU",
    "lat": 47.2628109,
    "lon": 7.9675995
  },
  "Wiler (Lötschen)": {
    "name": "Wiler (Lötschen)",
    "zip": "3918",
    "canton": "VS",
    "lat": 46.4039949,
    "lon": 7.7836104
  },
  "Willisau": {
    "name": "Willisau",
    "zip": "6130",
    "canton": "LU",
    "lat": 47.1215184,
    "lon": 7.99659
  },
  "Wolhusen": {
    "name": "Wolhusen",
    "zip": "6110",
    "canton": "LU",
    "lat": 47.0580138,
    "lon": 8.0725617
  },
  "Wünnewil-Flamatt": {
    "name": "Wünnewil-Flamatt",
    "zip": "3175",
    "canton": "FR",
    "lat": 46.8894589,
    "lon": 7.3110208
  },
  "Yens": {
    "name": "Yens",
    "zip": "1169",
    "canton": "VD",
    "lat": 46.518837,
    "lon": 6.4180806
  },
  "Yverdon-les-Bains": {
    "name": "Yverdon-les-Bains",
    "zip": "1400",
    "canton": "VD",
    "lat": 46.7784,
    "lon": 6.641
  },
  "Yvonand": {
    "name": "Yvonand",
    "zip": "1462",
    "canton": "VD",
    "lat": 46.7983158,
    "lon": 6.7445021
  },
  "Yvorne": {
    "name": "Yvorne",
    "zip": "1853",
    "canton": "VD",
    "lat": 46.3317116,
    "lon": 6.9586852
  },
  "Zell (LU)": {
    "name": "Zell (LU)",
    "zip": "6144",
    "canton": "LU",
    "lat": 47.1380513,
    "lon": 7.9227913
  },
  "Zeneggen": {
    "name": "Zeneggen",
    "zip": "3934",
    "canton": "VS",
    "lat": 46.2731779,
    "lon": 7.8656201
  },
  "Zermatt": {
    "name": "Zermatt",
    "zip": "3920",
    "canton": "VS",
    "lat": 46.0207,
    "lon": 7.7491
  },
  "Zwischbergen": {
    "name": "Zwischbergen",
    "zip": "3901",
    "canton": "VS",
    "lat": 46.1621804,
    "lon": 8.1164859
  },
  "Aeugst am Albis": {
    "name": "Aeugst am Albis",
    "zip": "8001",
    "canton": "ZH",
    "lat": 47.3741,
    "lon": 8.5385
  },
  "Affoltern am Albis": {
    "name": "Affoltern am Albis",
    "zip": "8002",
    "canton": "ZH",
    "lat": 47.3847,
    "lon": 8.5366
  },
  "Bonstetten": {
    "name": "Bonstetten",
    "zip": "8003",
    "canton": "ZH",
    "lat": 47.3752,
    "lon": 8.549800000000001
  },
  "Hausen am Albis": {
    "name": "Hausen am Albis",
    "zip": "8004",
    "canton": "ZH",
    "lat": 47.3833,
    "lon": 8.5351
  },
  "Hedingen": {
    "name": "Hedingen",
    "zip": "8005",
    "canton": "ZH",
    "lat": 47.368,
    "lon": 8.5394
  },
  "Kappel am Albis": {
    "name": "Kappel am Albis",
    "zip": "8006",
    "canton": "ZH",
    "lat": 47.381099999999996,
    "lon": 8.536100000000001
  },
  "Knonau": {
    "name": "Knonau",
    "zip": "8007",
    "canton": "ZH",
    "lat": 47.3841,
    "lon": 8.542300000000001
  },
  "Maschwanden": {
    "name": "Maschwanden",
    "zip": "8008",
    "canton": "ZH",
    "lat": 47.3722,
    "lon": 8.5328
  },
  "Mettmenstetten": {
    "name": "Mettmenstetten",
    "zip": "8009",
    "canton": "ZH",
    "lat": 47.3836,
    "lon": 8.535400000000001
  },
  "Obfelden": {
    "name": "Obfelden",
    "zip": "8010",
    "canton": "ZH",
    "lat": 47.375299999999996,
    "lon": 8.536200000000001
  },
  "Ottenbach": {
    "name": "Ottenbach",
    "zip": "8011",
    "canton": "ZH",
    "lat": 47.3862,
    "lon": 8.5394
  },
  "Rifferswil": {
    "name": "Rifferswil",
    "zip": "8012",
    "canton": "ZH",
    "lat": 47.3734,
    "lon": 8.540700000000001
  },
  "Stallikon": {
    "name": "Stallikon",
    "zip": "8013",
    "canton": "ZH",
    "lat": 47.3842,
    "lon": 8.5409
  },
  "Wettswil am Albis": {
    "name": "Wettswil am Albis",
    "zip": "8014",
    "canton": "ZH",
    "lat": 47.3713,
    "lon": 8.548300000000001
  },
  "Adlikon": {
    "name": "Adlikon",
    "zip": "8021",
    "canton": "ZH",
    "lat": 47.3747,
    "lon": 8.5402
  },
  "Benken (ZH)": {
    "name": "Benken (ZH)",
    "zip": "8022",
    "canton": "ZH",
    "lat": 47.3816,
    "lon": 8.550600000000001
  },
  "Berg am Irchel": {
    "name": "Berg am Irchel",
    "zip": "8023",
    "canton": "ZH",
    "lat": 47.3728,
    "lon": 8.534600000000001
  },
  "Buch am Irchel": {
    "name": "Buch am Irchel",
    "zip": "8024",
    "canton": "ZH",
    "lat": 47.3785,
    "lon": 8.5473
  },
  "Dachsen": {
    "name": "Dachsen",
    "zip": "8025",
    "canton": "ZH",
    "lat": 47.3821,
    "lon": 8.5466
  },
  "Dorf": {
    "name": "Dorf",
    "zip": "8026",
    "canton": "ZH",
    "lat": 47.3801,
    "lon": 8.541500000000001
  },
  "Feuerthalen": {
    "name": "Feuerthalen",
    "zip": "8027",
    "canton": "ZH",
    "lat": 47.375099999999996,
    "lon": 8.544
  },
  "Flaach": {
    "name": "Flaach",
    "zip": "8028",
    "canton": "ZH",
    "lat": 47.3834,
    "lon": 8.5373
  },
  "Flurlingen": {
    "name": "Flurlingen",
    "zip": "8029",
    "canton": "ZH",
    "lat": 47.3792,
    "lon": 8.535
  },
  "Andelfingen": {
    "name": "Andelfingen",
    "zip": "8030",
    "canton": "ZH",
    "lat": 47.3733,
    "lon": 8.533000000000001
  },
  "Henggart": {
    "name": "Henggart",
    "zip": "8031",
    "canton": "ZH",
    "lat": 47.3712,
    "lon": 8.5494
  },